[
    {
      "name": "Nanbu Soba",
      "lat": 26.1199386,
      "lng": 127.6676172,
      "google_maps_url": "https://maps.google.com/?cid=12477159683979738305"
    },
    {
      "name": "Itoman Butta Yaki",
      "lat": 26.1393159,
      "lng": 127.6598581,
      "google_maps_url": "https://maps.google.com/?cid=8495485185014730524"
    },
    {
      "name": "POSILLIPO cucina meridionale",
      "lat": 26.1766325,
      "lng": 127.6412499,
      "google_maps_url": "https://maps.google.com/?cid=3315135213142923685"
    },
    {
      "name": "Mokkai Soba Toraya",
      "lat": 26.194963,
      "lng": 127.6644745,
      "google_maps_url": "https://maps.google.com/?cid=16770325393066716632"
    },
    {
      "name": "Gorkarna",
      "lat": 26.2106655,
      "lng": 127.6841533,
      "google_maps_url": "https://maps.google.com/?cid=11840718105102761721"
    },
    {
      "name": "Eibun",
      "lat": 26.2127052,
      "lng": 127.690079,
      "google_maps_url": "https://maps.google.com/?cid=3737313308873826172"
    },
    {
      "name": "Yunami Sakashita-ten",
      "lat": 26.2181626,
      "lng": 127.7021347,
      "google_maps_url": "https://maps.google.com/?cid=5046560297437294837"
    },
    {
      "name": "Shuri Soba",
      "lat": 26.2175476,
      "lng": 127.7228492,
      "google_maps_url": "https://maps.google.com/?cid=8226109045606690430"
    },
    {
      "name": "Shuri Horikawa",
      "lat": 26.2195236,
      "lng": 127.7163173,
      "google_maps_url": "https://maps.google.com/?cid=3598282412947510765"
    },
    {
      "name": "Urizun",
      "lat": 26.2173345,
      "lng": 127.6964874,
      "google_maps_url": "https://maps.google.com/?cid=18239442046072099290"
    },
    {
      "name": "Kushiyaki Adan",
      "lat": 26.2155777,
      "lng": 127.6974286,
      "google_maps_url": "https://maps.google.com/?cid=16384046920902798103"
    },
    {
      "name": "Arakoya",
      "lat": 26.2157418,
      "lng": 127.697094,
      "google_maps_url": "https://maps.google.com/?cid=11627172795250113156"
    },
    {
      "name": "肉バル 透",
      "lat": 26.214168,
      "lng": 127.6879552,
      "google_maps_url": "https://maps.google.com/?cid=4309633345553771824"
    },
    {
      "name": "Matsuhara Confectionary",
      "lat": 26.215109,
      "lng": 127.68825,
      "google_maps_url": "https://maps.google.com/?cid=18016103608491565126"
    },
    {
      "name": "Blue Seal Kokusaidori",
      "lat": 26.2154368,
      "lng": 127.6850578,
      "google_maps_url": "https://maps.google.com/?cid=5981665176542437666"
    },
    {
      "name": "Jimanya",
      "lat": 26.2181566,
      "lng": 127.6872324,
      "google_maps_url": "https://maps.google.com/?cid=8980697253061004361"
    },
    {
      "name": "Fukugiya",
      "lat": 26.215054,
      "lng": 127.683965,
      "google_maps_url": "https://maps.google.com/?cid=3307788921611513278"
    },
    {
      "name": "Zooton's",
      "lat": 26.214854,
      "lng": 127.682737,
      "google_maps_url": "https://maps.google.com/?cid=10587088354417545083"
    },
    {
      "name": "Yunangi",
      "lat": 26.2144641,
      "lng": 127.6819102,
      "google_maps_url": "https://maps.google.com/?cid=13564136191706926577"
    },
    {
      "name": "Heki Kokusai Street Matsuo branch",
      "lat": 26.2139533,
      "lng": 127.6818787,
      "google_maps_url": "https://maps.google.com/?cid=9481490052818692339"
    },
    {
      "name": "BACAR OKINAWA",
      "lat": 26.2159843,
      "lng": 127.6816842,
      "google_maps_url": "https://maps.google.com/?cid=17826918482889085371"
    },
    {
      "name": "Shunsai-dokoro Biidoro",
      "lat": 26.2171395,
      "lng": 127.68328,
      "google_maps_url": "https://maps.google.com/?cid=9472625828798257448"
    },
    {
      "name": "Ma-chinu Ya",
      "lat": 26.220612,
      "lng": 127.684778,
      "google_maps_url": "https://maps.google.com/?cid=18365303114729807961"
    },
    {
      "name": "Dachibin",
      "lat": 26.2181412,
      "lng": 127.6825995,
      "google_maps_url": "https://maps.google.com/?cid=15357004148370980758"
    },
    {
      "name": "Yakiniku Restaurant Roins Kumoji Branch",
      "lat": 26.2166845,
      "lng": 127.6809859,
      "google_maps_url": "https://maps.google.com/?cid=18372561087158608998"
    },
    {
      "name": "肉の変態集団 疾風ホルモン久茂地本店",
      "lat": 26.216409,
      "lng": 127.680534,
      "google_maps_url": "https://maps.google.com/?cid=3333326604701763998"
    },
    {
      "name": "Muto",
      "lat": 26.2199127,
      "lng": 127.6812695,
      "google_maps_url": "https://maps.google.com/?cid=18291653208508521383"
    },
    {
      "name": "Shokusai Shubo Matsumoto",
      "lat": 26.2169514,
      "lng": 127.6783311,
      "google_maps_url": "https://maps.google.com/?cid=11001577555389722551"
    },
    {
      "name": "O's House",
      "lat": 26.2147204,
      "lng": 127.6759985,
      "google_maps_url": "https://maps.google.com/?cid=14860290374458887407"
    },
    {
      "name": "Tonton Jacky",
      "lat": 26.2148555,
      "lng": 127.6754291,
      "google_maps_url": "https://maps.google.com/?cid=11565776106163013680"
    },
    {
      "name": "Sennichi",
      "lat": 26.2177019,
      "lng": 127.673217,
      "google_maps_url": "https://maps.google.com/?cid=12611410218111223229"
    },
    {
      "name": "Agu Pork Shabu-shabu Miruku Naha",
      "lat": 26.2200782,
      "lng": 127.6744549,
      "google_maps_url": "https://maps.google.com/?cid=3180281239281117896"
    },
    {
      "name": "3-Chome Shima Soba Noodle Restaurant",
      "lat": 26.257493,
      "lng": 127.7360344,
      "google_maps_url": "https://maps.google.com/?cid=16463216143113118031"
    },
    {
      "name": "Blue Seal Makiminato Honten",
      "lat": 26.2673347,
      "lng": 127.7214297,
      "google_maps_url": "https://maps.google.com/?cid=17318301334061017980"
    },
    {
      "name": "Blue Seal Chatan",
      "lat": 26.3136996,
      "lng": 127.7612059,
      "google_maps_url": "https://maps.google.com/?cid=5622470802485578125"
    },
    {
      "name": "Emerald",
      "lat": 26.3179767,
      "lng": 127.8008223,
      "google_maps_url": "https://maps.google.com/?cid=13899875569202128214"
    },
    {
      "name": "Burrata",
      "lat": 26.3264686,
      "lng": 127.7935706,
      "google_maps_url": "https://maps.google.com/?cid=12571834402993423501"
    },
    {
      "name": "Ryu - pin",
      "lat": 26.4362419,
      "lng": 127.7946969,
      "google_maps_url": "https://maps.google.com/?cid=16702246800738988181"
    },
    {
      "name": "Pizzeria da Enzo",
      "lat": 26.4402322,
      "lng": 127.7686962,
      "google_maps_url": "https://maps.google.com/?cid=16267691790757991521"
    },
    {
      "name": "Mitsuya Honpo Onna",
      "lat": 26.4983216,
      "lng": 127.8532711,
      "google_maps_url": "https://maps.google.com/?cid=134029190472627440"
    },
    {
      "name": "Nakamura Soba",
      "lat": 26.5067458,
      "lng": 127.8653888,
      "google_maps_url": "https://maps.google.com/?cid=3915119288500179886"
    },
    {
      "name": "Paanilani",
      "lat": 26.508997,
      "lng": 127.8722411,
      "google_maps_url": "https://maps.google.com/?cid=13722076567611884412"
    },
    {
      "name": "Prawns Restaurant Tamaya",
      "lat": 26.4837798,
      "lng": 127.985148,
      "google_maps_url": "https://maps.google.com/?cid=1761835374542987777"
    },
    {
      "name": "Oba-no-ie",
      "lat": 26.5393739,
      "lng": 127.9498418,
      "google_maps_url": "https://maps.google.com/?cid=13636424300938487149"
    },
    {
      "name": "琉球銘菓 三矢",
      "lat": 26.5520097,
      "lng": 127.9699874,
      "google_maps_url": "https://maps.google.com/?cid=15352383126197824653"
    },
    {
      "name": "やんばるダイニング 松の古民家",
      "lat": 26.5940169,
      "lng": 127.9773782,
      "google_maps_url": "https://maps.google.com/?cid=6548128178862233851"
    },
    {
      "name": "Kinogawa",
      "lat": 26.6474,
      "lng": 127.8865944,
      "google_maps_url": "https://maps.google.com/?cid=7020337508099370486"
    },
    {
      "name": "Kishimoto Shokudo",
      "lat": 26.6603253,
      "lng": 127.8958949,
      "google_maps_url": "https://maps.google.com/?cid=1608828000850414129"
    },
    {
      "name": "Pizza in the Sky",
      "lat": 26.6685007,
      "lng": 127.9007959,
      "google_maps_url": "https://maps.google.com/?cid=12192341243748165770"
    },
    {
      "name": "Nakijin Soba",
      "lat": 26.696485,
      "lng": 127.94146,
      "google_maps_url": "https://maps.google.com/?cid=8163879155725284297"
    }
  ]