[
    {
      "name": "ISSEY MIYAKE KOBE",
      "lat": 34.6871633,
      "lng": 135.1905185,
      "google_map_url":"https://maps.google.com/?cid=7057751063218375502"
    },
    {
      "name": "Chrome Hearts クロムハーツ",
      "lat": 34.68791,
      "lng": 135.191717,
      "google_map_url":"https://maps.google.com/?cid=7897961019040908214"
    },
    {
      "name": "Daimaru Kobe",
      "lat": 34.688689,
      "lng": 135.1900346,
      "google_map_url":"https://maps.google.com/?cid=4286133139110958287"
    },
    {
      "name": "kindal kobe second hand store",
      "lat": 34.6900987,
      "lng": 135.1907638,
      "google_map_url":"https://maps.google.com/?cid=15019382570858545023"
    },
    {
      "name": "Ron Herman Kobe Store",
      "lat": 34.6897331,
      "lng": 135.1901536,
      "google_map_url":"https://maps.google.com/?cid=306728770788964085"
    },
    {
      "name": "Edition Kobe BAL",
      "lat": 34.6898603,
      "lng": 135.1901622,
      "google_map_url":"https://maps.google.com/?cid=10663332264439139154"
    },
    {
      "name": "ANEX -KOBE-",
      "lat": 34.6864872,
      "lng": 135.1864917,
      "google_map_url":"https://maps.google.com/?cid=17859400040566557578"
    },
    {
      "name": "RAGTAG",
      "lat": 34.6914744,
      "lng": 135.1894983,
      "google_map_url":"https://maps.google.com/?cid=10603360935234966848"
    },
    {
      "name": "Mukta / Sal",
      "lat": 34.7001029,
      "lng": 135.1935097,
      "google_map_url":"https://maps.google.com/?cid=1153833390164377809"
    }
]