[
    {
      "name": "Parco Fiera",
      "lat": 43.1274808,
      "lng": 141.2232738,
      "google_map_url":"https://maps.google.com/?cid=5144022806867691414"
    },
    {
      "name": "Men-ya hide",
      "lat": 43.1189642,
      "lng": 141.3001671,
      "google_map_url":"https://maps.google.com/?cid=1832465477874408609"
    },
    {
      "name": "Mendokoro Yondaime Yūji(ramen)",
      "lat": 43.1167275,
      "lng": 141.3245958,
      "google_map_url":"https://maps.google.com/?cid=16853478750840192739"
    },
    {
      "name": "Kokuminshokudo",
      "lat": 43.1287995,
      "lng": 141.3489688,
      "google_map_url":"https://maps.google.com/?cid=3967878463768961511"
    },
    {
      "name": "Keserasera",
      "lat": 43.1306118,
      "lng": 141.3550082,
      "google_map_url":"https://maps.google.com/?cid=14134362786731019978"
    },
    {
      "name": "麺や 亀陣",
      "lat": 43.1178788,
      "lng": 141.3546461,
      "google_map_url":"https://maps.google.com/?cid=6886233169796978610"
    },
    {
      "name": "Hachinoki",
      "lat": 43.0970055,
      "lng": 141.2708837,
      "google_map_url":"https://maps.google.com/?cid=10150455537725650043"
    },
    {
      "name": "Nagoyakatei Hassamu",
      "lat": 43.0885011,
      "lng": 141.2798386,
      "google_map_url":"https://maps.google.com/?cid=3234006910516725654"
    },
    {
      "name": "札幌麺屋 美椿(ミツバ)",
      "lat": 43.0931384,
      "lng": 141.2933977,
      "google_map_url":"https://maps.google.com/?cid=10744892843192772833"
    },
    {
      "name": "PIZZA & CAFFÉ OHNO BUONO",
      "lat": 43.0917563,
      "lng": 141.29383,
      "google_map_url":"https://maps.google.com/?cid=13104051457481546412"
    },
    {
      "name": "Esper Ito",
      "lat": 43.0873415,
      "lng": 141.3142237,
      "google_map_url":"https://maps.google.com/?cid=11486684017407581078"
    },
    {
      "name": "Tiger curry",
      "lat": 43.0896191,
      "lng": 141.3443459,
      "google_map_url":"https://maps.google.com/?cid=6381002885829024666"
    },
    {
      "name": "Sapporo Junren Kita 31 Jo Store",
      "lat": 43.0988387,
      "lng": 141.3459866,
      "google_map_url":"https://maps.google.com/?cid=9656552483050659680"
    },
    {
      "name": "MEN SHOUKI",
      "lat": 43.0936485,
      "lng": 141.3490009,
      "google_map_url":"https://maps.google.com/?cid=15286576965645119836"
    },
    {
      "name": "Medicinal Curry Honpo Ajanta Souhonke",
      "lat": 43.0942733,
      "lng": 141.3822693,
      "google_map_url":"https://maps.google.com/?cid=6246741766215792257"
    },
    {
      "name": "Yugeya",
      "lat": 43.0858921,
      "lng": 141.3924107,
      "google_map_url":"https://maps.google.com/?cid=1982871335450593075"
    },
    {
      "name": "スパイス&ラーメン橙~オレンジ",
      "lat": 43.0913188,
      "lng": 141.4094875,
      "google_map_url":"https://maps.google.com/?cid=2733481840551244500"
    },
    {
      "name": "Taguto",
      "lat": 43.0767237,
      "lng": 141.2845896,
      "google_map_url":"https://maps.google.com/?cid=14094149939495181516"
    },
    {
      "name": "Sapporo rakkyo Soup Curry",
      "lat": 43.079884,
      "lng": 141.308193,
      "google_map_url":"https://maps.google.com/?cid=13022443615204494462"
    },
    {
      "name": "ユニヴェール エス",
      "lat": 43.0745103,
      "lng": 141.3049972,
      "google_map_url":"https://maps.google.com/?cid=4096135382140907220"
    },
    {
      "name": "Fukuya",
      "lat": 43.0721457,
      "lng": 141.3104491,
      "google_map_url":"https://maps.google.com/?cid=5887985658287612662"
    },
    {
      "name": "Hand-made Udonteraya",
      "lat": 43.0683379,
      "lng": 141.294989,
      "google_map_url":"https://maps.google.com/?cid=14069730299815079440"
    },
    {
      "name": "gop(ゴップ)のアナグラ",
      "lat": 43.0685092,
      "lng": 141.2951363,
      "google_map_url":"https://maps.google.com/?cid=18304045140457952532"
    },
    {
      "name": "Sushi Uomasa",
      "lat": 43.0719411,
      "lng": 141.321917,
      "google_map_url":"https://maps.google.com/?cid=4060537958517546323"
    },
    {
      "name": "Kitano Gurume",
      "lat": 43.0707005,
      "lng": 141.3200445,
      "google_map_url":"https://maps.google.com/?cid=16655458690642912544"
    },
    {
      "name": "Nouilles Japonaise Tokuichi",
      "lat": 43.0705016,
      "lng": 141.3202376,
      "google_map_url":"https://maps.google.com/?cid=17175810513081466893"
    },
    {
      "name": "定食めし屋",
      "lat": 43.0704879,
      "lng": 141.3203161,
      "google_map_url":"https://maps.google.com/?cid=4451653945342489748"
    },
    {
      "name": "あら焚き豚骨 あらとん",
      "lat": 43.0697603,
      "lng": 141.3209033,
      "google_map_url":"https://maps.google.com/?cid=10119632597008203152"
    },
    {
      "name": "Kokopelli",
      "lat": 43.0663024,
      "lng": 141.3266771,
      "google_map_url":"https://maps.google.com/?cid=11889350166824414521"
    },
    {
      "name": "Patisserie Shiiya",
      "lat": 43.063435,
      "lng": 141.323755,
      "google_map_url":"https://maps.google.com/?cid=13432516312313995992"
    },
    {
      "name": "Le Varo",
      "lat": 43.0613813,
      "lng": 141.3205967,
      "google_map_url":"https://maps.google.com/?cid=2352461652497697491"
    },
    {
      "name": "Sushi Miyakawa",
      "lat": 43.0621249,
      "lng": 141.3176119,
      "google_map_url":"https://maps.google.com/?cid=7084590764284151544"
    },
    {
      "name": "Red Chili",
      "lat": 43.060604,
      "lng": 141.3175009,
      "google_map_url":"https://maps.google.com/?cid=4120632514664276280"
    },
    {
      "name": "BARNES",
      "lat": 43.0607963,
      "lng": 141.2969316,
      "google_map_url":"https://maps.google.com/?cid=7419997990478911953"
    },
    {
      "name": "Boulangerie La fontaine de Lourdes",
      "lat": 43.0543081,
      "lng": 141.2928278,
      "google_map_url":"https://maps.google.com/?cid=3067493038099427634"
    },
    {
      "name": "Miyanomori Renge-do",
      "lat": 43.0442895,
      "lng": 141.2924707,
      "google_map_url":"https://maps.google.com/?cid=16718103832208135781"
    },
    {
      "name": "CLOCK",
      "lat": 43.0436963,
      "lng": 141.3085084,
      "google_map_url":"https://maps.google.com/?cid=13517730750042732500"
    },
    {
      "name": "Moliere",
      "lat": 43.057375,
      "lng": 141.3115977,
      "google_map_url":"https://maps.google.com/?cid=6723659034079022176"
    },
    {
      "name": "コートドール",
      "lat": 43.0580144,
      "lng": 141.3121224,
      "google_map_url":"https://maps.google.com/?cid=15504548107962899987"
    },
    {
      "name": "Shinasoba Chiu",
      "lat": 43.0573089,
      "lng": 141.3157177,
      "google_map_url":"https://maps.google.com/?cid=9473740647787332818"
    },
    {
      "name": "L’Auberge de l’ill Sapporo",
      "lat": 43.0548885,
      "lng": 141.314502,
      "google_map_url":"https://maps.google.com/?cid=2253656397620902903"
    },
    {
      "name": "Morihico Coffee",
      "lat": 43.0533077,
      "lng": 141.3186089,
      "google_map_url":"https://maps.google.com/?cid=5200756221303637729"
    },
    {
      "name": "Sushisai Wakichi",
      "lat": 43.0544865,
      "lng": 141.3191125,
      "google_map_url":"https://maps.google.com/?cid=15616771020300142799"
    },
    {
      "name": "soup curry MATALE",
      "lat": 43.055479,
      "lng": 141.3230156,
      "google_map_url":"https://maps.google.com/?cid=15489844515767506041"
    },
    {
      "name": "Professor Maruyama Curry",
      "lat": 43.0535468,
      "lng": 141.3260933,
      "google_map_url":"https://maps.google.com/?cid=2223522501169677159"
    },
    {
      "name": "北の和菓子 四代嘉心",
      "lat": 43.055542,
      "lng": 141.3266258,
      "google_map_url":"https://maps.google.com/?cid=14907716802611200784"
    },
    {
      "name": "Kikouan",
      "lat": 43.0541753,
      "lng": 141.3300124,
      "google_map_url":"https://maps.google.com/?cid=3429792379067527842"
    },
    {
      "name": "ラムハウス・ケケレ",
      "lat": 43.0571759,
      "lng": 141.3321485,
      "google_map_url":"https://maps.google.com/?cid=15504863418136640537"
    },
    {
      "name": "CAPSULE MONSTER",
      "lat": 43.0569392,
      "lng": 141.3343913,
      "google_map_url":"https://maps.google.com/?cid=17234725740150991107"
    },
    {
      "name": "Hassen Odori",
      "lat": 43.0573492,
      "lng": 141.336466,
      "google_map_url":"https://maps.google.com/?cid=10480093025988891824"
    },
    {
      "name": "さっぽろルーカレーNAGAMIYA",
      "lat": 43.0573305,
      "lng": 141.3369698,
      "google_map_url":"https://maps.google.com/?cid=16483000804417358269"
    },
    {
      "name": "Bandou Coffee",
      "lat": 43.0581133,
      "lng": 141.339979,
      "google_map_url":"https://maps.google.com/?cid=16294634741443763635"
    },
    {
      "name": "Atelier Morihico",
      "lat": 43.0574524,
      "lng": 141.3394034,
      "google_map_url":"https://maps.google.com/?cid=11650237765508320151"
    },
    {
      "name": "曉",
      "lat": 43.0571216,
      "lng": 141.3395941,
      "google_map_url":"https://maps.google.com/?cid=16124047153989879367"
    },
    {
      "name": "志の家",
      "lat": 43.0562067,
      "lng": 141.3396521,
      "google_map_url":"https://maps.google.com/?cid=5524650861654036975"
    },
    {
      "name": "Bon No Kaze",
      "lat": 43.0493929,
      "lng": 141.3351355,
      "google_map_url":"https://maps.google.com/?cid=11382147439338002379"
    },
    {
      "name": "Champon Ikkaku Honten",
      "lat": 43.0472352,
      "lng": 141.3239522,
      "google_map_url":"https://maps.google.com/?cid=11361461796024120212"
    },
    {
      "name": "Nishitondendori Soup Curry",
      "lat": 43.0484009,
      "lng": 141.3390067,
      "google_map_url":"https://maps.google.com/?cid=3651828092478178960"
    },
    {
      "name": "Koku Ichiban Ramen",
      "lat": 43.0344839,
      "lng": 141.3370597,
      "google_map_url":"https://maps.google.com/?cid=13065708484323352206"
    },
    {
      "name": "Coffee House",
      "lat": 43.032211,
      "lng": 141.3372309,
      "google_map_url":"https://maps.google.com/?cid=14458884321608090202"
    },
    {
      "name": "欧風カレーKEN",
      "lat": 43.0792647,
      "lng": 141.3541312,
      "google_map_url":"https://maps.google.com/?cid=6984855748168731601"
    },
    {
      "name": "札幌Fuji屋",
      "lat": 43.0800773,
      "lng": 141.3632691,
      "google_map_url":"https://maps.google.com/?cid=17885334155672771429"
    },
    {
      "name": "Ramen Yutsuki",
      "lat": 43.0791282,
      "lng": 141.3728548,
      "google_map_url":"https://maps.google.com/?cid=12418883623232438561"
    },
    {
      "name": "Picante Soup curry",
      "lat": 43.07694,
      "lng": 141.348654,
      "google_map_url":"https://maps.google.com/?cid=6153520360799735955"
    },
    {
      "name": "らーめん ほっぺ家",
      "lat": 43.0758877,
      "lng": 141.3630871,
      "google_map_url":"https://maps.google.com/?cid=9411018164164551178"
    },
    {
      "name": "Marutaka Ramen",
      "lat": 43.0736449,
      "lng": 141.348038,
      "google_map_url":"https://maps.google.com/?cid=1281654297153563621"
    },
    {
      "name": "Tokouan Higasi",
      "lat": 43.0740666,
      "lng": 141.360047,
      "google_map_url":"https://maps.google.com/?cid=1232171172502566494"
    },
    {
      "name": "Toriton Kita 8",
      "lat": 43.0727363,
      "lng": 141.3614178,
      "google_map_url":"https://maps.google.com/?cid=1403429751979837764"
    },
    {
      "name": "Savoy Sapporo Station Kitaguchi",
      "lat": 43.0711944,
      "lng": 141.3492452,
      "google_map_url":"https://maps.google.com/?cid=10983400578073407997"
    },
    {
      "name": "Amewayasashiku NO,2",
      "lat": 43.0713946,
      "lng": 141.3593535,
      "google_map_url":"https://maps.google.com/?cid=7713996738302868266"
    },
    {
      "name": "蕎麦切り 春のすけ",
      "lat": 43.0707401,
      "lng": 141.359328,
      "google_map_url":"https://maps.google.com/?cid=17568024163704375929"
    },
    {
      "name": "Sapporo Beer Garden",
      "lat": 43.0713342,
      "lng": 141.3690782,
      "google_map_url":"https://maps.google.com/?cid=637930090976473508"
    },
    {
      "name": "Ajihyakusen",
      "lat": 43.0690646,
      "lng": 141.3486441,
      "google_map_url":"https://maps.google.com/?cid=759869723161338601"
    },
    {
      "name": "175 DENO Tantanmen Sapporoekikitaguchiten",
      "lat": 43.0692162,
      "lng": 141.3495346,
      "google_map_url":"https://maps.google.com/?cid=13085272694504454958"
    },
    {
      "name": "Ramen Jiro Sapporo",
      "lat": 43.0673859,
      "lng": 141.3438943,
      "google_map_url":"https://maps.google.com/?cid=7212054898015893510"
    },
    {
      "name": "Hiri Hiri 2 Soup Curry Sapporo Station",
      "lat": 43.0674119,
      "lng": 141.3458646,
      "google_map_url":"https://maps.google.com/?cid=4363127921555072925"
    },
    {
      "name": "Nemuro Hanamaru at Sapporo Station",
      "lat": 43.0679281,
      "lng": 141.3501447,
      "google_map_url":"https://maps.google.com/?cid=5164715388780302898"
    },
    {
      "name": "Mikuni Sapporo",
      "lat": 43.0678784,
      "lng": 141.3508723,
      "google_map_url":"https://maps.google.com/?cid=11230427060500110058"
    },
    {
      "name": "Curry House Colombo",
      "lat": 43.0659733,
      "lng": 141.3502367,
      "google_map_url":"https://maps.google.com/?cid=10599821259581746038"
    },
    {
      "name": "Soup Curry Okushiba Store Ekimae Soseiji",
      "lat": 43.0668685,
      "lng": 141.3542928,
      "google_map_url":"https://maps.google.com/?cid=15253944211594759480"
    },
    {
      "name": "Sapporo Ichiryuan",
      "lat": 43.0668968,
      "lng": 141.3543399,
      "google_map_url":"https://maps.google.com/?cid=6780397045555705103"
    },
    {
      "name": "Nemuro Hanamaru Daido Seimei Sapporo Building miredo",
      "lat": 43.0647259,
      "lng": 141.3517013,
      "google_map_url":"https://maps.google.com/?cid=9499166559529740111"
    },
    {
      "name": "鮨処 凜",
      "lat": 43.0658239,
      "lng": 141.3553095,
      "google_map_url":"https://maps.google.com/?cid=14269781461471262197"
    },
    {
      "name": "Kin Sushi",
      "lat": 43.0657096,
      "lng": 141.36678,
      "google_map_url":"https://maps.google.com/?cid=7176556700868772859"
    },
    {
      "name": "boulangerie coron",
      "lat": 43.0645989,
      "lng": 141.3598791,
      "google_map_url":"https://maps.google.com/?cid=12576408139423027545"
    },
    {
      "name": "Soup curry Hige danshaku",
      "lat": 43.0635099,
      "lng": 141.3585995,
      "google_map_url":"https://maps.google.com/?cid=234377293652522542"
    },
    {
      "name": "Fukurokuju",
      "lat": 43.0628526,
      "lng": 141.3518439,
      "google_map_url":"https://maps.google.com/?cid=8193853282124887648"
    },
    {
      "name": "Soup curry syabazo",
      "lat": 43.0621886,
      "lng": 141.3511724,
      "google_map_url":"https://maps.google.com/?cid=2977097880085505969"
    },
    {
      "name": "Haruno Sora",
      "lat": 43.0604496,
      "lng": 141.3477741,
      "google_map_url":"https://maps.google.com/?cid=7470798442486808864"
    },
    {
      "name": "黒岩咖哩飯店 本店",
      "lat": 43.0604034,
      "lng": 141.3443824,
      "google_map_url":"https://maps.google.com/?cid=3362133266995739800"
    },
    {
      "name": "Senju",
      "lat": 43.0603642,
      "lng": 141.3443628,
      "google_map_url":"https://maps.google.com/?cid=6029670443761913294"
    },
    {
      "name": "Mingus Coffee",
      "lat": 43.0599301,
      "lng": 141.3564851,
      "google_map_url":"https://maps.google.com/?cid=14106642089087506110"
    },
    {
      "name": "Saera coffee & Sandwiches",
      "lat": 43.0602379,
      "lng": 141.3543745,
      "google_map_url":"https://maps.google.com/?cid=12836472283253756124"
    },
    {
      "name": "Ramen shop Kirita Seimen",
      "lat": 43.0595988,
      "lng": 141.349557,
      "google_map_url":"https://maps.google.com/?cid=354315673726302403"
    },
    {
      "name": "ZORA",
      "lat": 43.0588193,
      "lng": 141.3474538,
      "google_map_url":"https://maps.google.com/?cid=15448446689320242764"
    },
    {
      "name": "Semina",
      "lat": 43.0583434,
      "lng": 141.3447218,
      "google_map_url":"https://maps.google.com/?cid=16393503327412631277"
    },
    {
      "name": "Hotei",
      "lat": 43.0579237,
      "lng": 141.343825,
      "google_map_url":"https://maps.google.com/?cid=3325373900905046950"
    },
    {
      "name": "村上カレー店 プルプル",
      "lat": 43.0567438,
      "lng": 141.343511,
      "google_map_url":"https://maps.google.com/?cid=13186002519472164714"
    },
    {
      "name": "Masuda",
      "lat": 43.0552568,
      "lng": 141.343507,
      "google_map_url":"https://maps.google.com/?cid=6847186254510545620"
    },
    {
      "name": "麺屋169",
      "lat": 43.0388916,
      "lng": 141.3471973,
      "google_map_url":"https://maps.google.com/?cid=4000885425662887435"
    },
    {
      "name": "CURRY YA! CONG",
      "lat": 43.038219,
      "lng": 141.3524945,
      "google_map_url":"https://maps.google.com/?cid=4148433401184438002"
    },
    {
      "name": "Medicineman",
      "lat": 43.0443938,
      "lng": 141.3435701,
      "google_map_url":"https://maps.google.com/?cid=448541617877329935"
    },
    {
      "name": "Gomarudo",
      "lat": 43.0489257,
      "lng": 141.3438889,
      "google_map_url":"https://maps.google.com/?cid=1001670764477122511"
    },
    {
      "name": "Sandria",
      "lat": 43.0494283,
      "lng": 141.3457879,
      "google_map_url":"https://maps.google.com/?cid=8407431263604113708"
    },
    {
      "name": "Genghis Khan Fukurotei",
      "lat": 43.0509849,
      "lng": 141.3513389,
      "google_map_url":"https://maps.google.com/?cid=17113507992761278383"
    },
    {
      "name": "Gojogen",
      "lat": 43.0511046,
      "lng": 141.3459097,
      "google_map_url":"https://maps.google.com/?cid=4912514413759231137"
    },
    {
      "name": "Ebisoba Ichigen Main Shop",
      "lat": 43.05127,
      "lng": 141.345472,
      "google_map_url":"https://maps.google.com/?cid=133821498680476131"
    },
    {
      "name": "Ramen Shingen minami 6 jo branch",
      "lat": 43.0522777,
      "lng": 141.3475432,
      "google_map_url":"https://maps.google.com/?cid=11307649988743543203"
    },
    {
      "name": "Ramen Arata",
      "lat": 43.0521261,
      "lng": 141.3490909,
      "google_map_url":"https://maps.google.com/?cid=1672072525365190575"
    },
    {
      "name": "Nozawa",
      "lat": 43.05212,
      "lng": 141.3505829,
      "google_map_url":"https://maps.google.com/?cid=2082493745959980753"
    },
    {
      "name": "焼鳥と地酒 SAKE酉",
      "lat": 43.052372,
      "lng": 141.3523012,
      "google_map_url":"https://maps.google.com/?cid=8873676693401546078"
    },
    {
      "name": "Yukikaze",
      "lat": 43.052337,
      "lng": 141.3526813,
      "google_map_url":"https://maps.google.com/?cid=17311734638072208550"
    },
    {
      "name": "Shuangodai",
      "lat": 43.0524587,
      "lng": 141.353182,
      "google_map_url":"https://maps.google.com/?cid=7829994958560136591"
    },
    {
      "name": "Araki Tempura Restaurant",
      "lat": 43.0525053,
      "lng": 141.3535794,
      "google_map_url":"https://maps.google.com/?cid=7870062583416479033"
    },
    {
      "name": "Sushi Hidetaka",
      "lat": 43.0525482,
      "lng": 141.3536324,
      "google_map_url":"https://maps.google.com/?cid=4533738337937358282"
    },
    {
      "name": "Daruma 6.4 Shop",
      "lat": 43.0526619,
      "lng": 141.3532855,
      "google_map_url":"https://maps.google.com/?cid=4032425855532403630"
    },
    {
      "name": "Jingisukan Yamaka Susukino",
      "lat": 43.0527254,
      "lng": 141.3537814,
      "google_map_url":"https://maps.google.com/?cid=10580992397468298944"
    },
    {
      "name": "ジンギスカン えいじん",
      "lat": 43.0527449,
      "lng": 141.3526497,
      "google_map_url":"https://maps.google.com/?cid=2622670084733406046"
    },
    {
      "name": "千春鮨 すすきの",
      "lat": 43.0536259,
      "lng": 141.3546537,
      "google_map_url":"https://maps.google.com/?cid=10265451001580110609"
    },
    {
      "name": "おまる商店",
      "lat": 43.0538274,
      "lng": 141.3548291,
      "google_map_url":"https://maps.google.com/?cid=17367963468998334909"
    },
    {
      "name": "Gyoja Suguruya",
      "lat": 43.053766,
      "lng": 141.354513,
      "google_map_url":"https://maps.google.com/?cid=8602526652473748613"
    },
    {
      "name": "Keyaki",
      "lat": 43.0538906,
      "lng": 141.3544751,
      "google_map_url":"https://maps.google.com/?cid=16223278055157946803"
    },
    {
      "name": "Aji No Hitsujigaoka",
      "lat": 43.0538088,
      "lng": 141.3536065,
      "google_map_url":"https://maps.google.com/?cid=3756613981204618383"
    },
    {
      "name": "Yakiniku Jingisukan Horumon Fudo Susukino",
      "lat": 43.0537945,
      "lng": 141.3535497,
      "google_map_url":"https://maps.google.com/?cid=189865442615929282"
    },
    {
      "name": "薄野 肉海鮮炉端 芯々",
      "lat": 43.0537078,
      "lng": 141.3529239,
      "google_map_url":"https://maps.google.com/?cid=2925657700223104460"
    },
    {
      "name": "Kaiyotei Susukino store (seafood)",
      "lat": 43.053669,
      "lng": 141.352747,
      "google_map_url":"https://maps.google.com/?cid=7503970177810274614"
    },
    {
      "name": "にく式 すすきの店",
      "lat": 43.0536232,
      "lng": 141.351909,
      "google_map_url":"https://maps.google.com/?cid=11377641616018759164"
    },
    {
      "name": "Yakiniku TAIHARA Susukino",
      "lat": 43.0540163,
      "lng": 141.352466,
      "google_map_url":"https://maps.google.com/?cid=3777483006440178989"
    },
    {
      "name": "Men-ya Suzuran",
      "lat": 43.0540221,
      "lng": 141.3522377,
      "google_map_url":"https://maps.google.com/?cid=2085917645031344054"
    },
    {
      "name": "Itadakimasu",
      "lat": 43.0539704,
      "lng": 141.3519437,
      "google_map_url":"https://maps.google.com/?cid=7188378095822680352"
    },
    {
      "name": "じんぎすかん マルタケ すすきの本店",
      "lat": 43.0537151,
      "lng": 141.3499781,
      "google_map_url":"https://maps.google.com/?cid=1898920769088159190"
    },
    {
      "name": "Yakiniku Restaurant Totori",
      "lat": 43.053433,
      "lng": 141.34793,
      "google_map_url":"https://maps.google.com/?cid=8469166591734193745"
    },
    {
      "name": "Ramen SHINGETSU",
      "lat": 43.0549114,
      "lng": 141.3544669,
      "google_map_url":"https://maps.google.com/?cid=1486287732031829306"
    },
    {
      "name": "Tenhou",
      "lat": 43.0547764,
      "lng": 141.3543364,
      "google_map_url":"https://maps.google.com/?cid=12732409897529085315"
    },
    {
      "name": "成吉思汗 だるま 4・4店",
      "lat": 43.0548577,
      "lng": 141.352447,
      "google_map_url":"https://maps.google.com/?cid=17613118764433307011"
    },
    {
      "name": "Fujiya Noodle",
      "lat": 43.0553375,
      "lng": 141.3542416,
      "google_map_url":"https://maps.google.com/?cid=4284187417433650654"
    },
    {
      "name": "Mogura Ramen",
      "lat": 43.0554694,
      "lng": 141.3542484,
      "google_map_url":"https://maps.google.com/?cid=6163930445853349140"
    },
    {
      "name": "Kaitensushi pasaaru",
      "lat": 43.05625,
      "lng": 141.3558295,
      "google_map_url":"https://maps.google.com/?cid=14934780837654806457"
    },
    {
      "name": "Le Coq",
      "lat": 43.056471,
      "lng": 141.357068,
      "google_map_url":"https://maps.google.com/?cid=455490000369094144"
    },
    {
      "name": "Chugoku Tohoku Hanten",
      "lat": 43.0560765,
      "lng": 141.3611653,
      "google_map_url":"https://maps.google.com/?cid=9138501606803552640"
    },
    {
      "name": "aki nagao",
      "lat": 43.056377,
      "lng": 141.354367,
      "google_map_url":"https://maps.google.com/?cid=8785761148812374383"
    },
    {
      "name": "田久鮓（たくずし）",
      "lat": 43.0567457,
      "lng": 141.3543066,
      "google_map_url":"https://maps.google.com/?cid=4650867870787744196"
    },
    {
      "name": "HEY MEAT",
      "lat": 43.056654,
      "lng": 141.3541914,
      "google_map_url":"https://maps.google.com/?cid=14715397721384215492"
    },
    {
      "name": "Umi Hachikyo",
      "lat": 43.056426,
      "lng": 141.3540182,
      "google_map_url":"https://maps.google.com/?cid=4951280935922912116"
    },
    {
      "name": "the bar nano. femto.",
      "lat": 43.056426,
      "lng": 141.3540182,
      "google_map_url":"https://maps.google.com/?cid=14089156710165443398"
    },
    {
      "name": "地酒と道産食材 一笑 本店",
      "lat": 43.0563039,
      "lng": 141.3540531,
      "google_map_url":"https://maps.google.com/?cid=17989549665380264022"
    },
    {
      "name": "Yakiniku Gurumans Ito",
      "lat": 43.0562974,
      "lng": 141.3536957,
      "google_map_url":"https://maps.google.com/?cid=12624722667953080413"
    },
    {
      "name": "Yamazaki",
      "lat": 43.0562974,
      "lng": 141.3536956,
      "google_map_url":"https://maps.google.com/?cid=8818266633648710020"
    },
    {
      "name": "Sumire Sapporo Susukino Shop",
      "lat": 43.0563286,
      "lng": 141.3535699,
      "google_map_url":"https://maps.google.com/?cid=9777075241444519631"
    },
    {
      "name": "Susukino Sushikin",
      "lat": 43.0559678,
      "lng": 141.352576,
      "google_map_url":"https://maps.google.com/?cid=4771219532696148564"
    },
    {
      "name": "大衆おっさんパラダイス モツの朝立ち",
      "lat": 43.0560565,
      "lng": 141.3520791,
      "google_map_url":"https://maps.google.com/?cid=12730788160781461901"
    },
    {
      "name": "Suage+ Soup Curry",
      "lat": 43.0557369,
      "lng": 141.3512699,
      "google_map_url":"https://maps.google.com/?cid=10502422655510800755"
    },
    {
      "name": "未来カレーこりす",
      "lat": 43.0555978,
      "lng": 141.3487517,
      "google_map_url":"https://maps.google.com/?cid=14285865282570161938"
    },
    {
      "name": "gaucher",
      "lat": 43.0560899,
      "lng": 141.346329,
      "google_map_url":"https://maps.google.com/?cid=15745959498818892491"
    },
    {
      "name": "Osteria Crocchio",
      "lat": 43.056293,
      "lng": 141.346461,
      "google_map_url":"https://maps.google.com/?cid=13403030950817939969"
    },
    {
      "name": "teatro di massa",
      "lat": 43.0561278,
      "lng": 141.3465417,
      "google_map_url":"https://maps.google.com/?cid=17718823435897026295"
    },
    {
      "name": "Ramen Sapporo Akahoshi",
      "lat": 43.0563563,
      "lng": 141.3468761,
      "google_map_url":"https://maps.google.com/?cid=952710002196322066"
    },
    {
      "name": "Soul Store Sapporo Odori",
      "lat": 43.056486,
      "lng": 141.347864,
      "google_map_url":"https://maps.google.com/?cid=10154109025880058657"
    },
    {
      "name": "Bem Bera network company",
      "lat": 43.0568278,
      "lng": 141.3480184,
      "google_map_url":"https://maps.google.com/?cid=1674381550507792910"
    },
    {
      "name": "Kiraito",
      "lat": 43.0568695,
      "lng": 141.3492218,
      "google_map_url":"https://maps.google.com/?cid=6763357948496035359"
    },
    {
      "name": "Momiji",
      "lat": 43.0564885,
      "lng": 141.3494306,
      "google_map_url":"https://maps.google.com/?cid=14307884582599011167"
    },
    {
      "name": "魚菜",
      "lat": 43.0568473,
      "lng": 141.3507364,
      "google_map_url":"https://maps.google.com/?cid=8120578390742356734"
    },
    {
      "name": "ジンギスカン ひげのうし本店",
      "lat": 43.0567943,
      "lng": 141.3512384,
      "google_map_url":"https://maps.google.com/?cid=13319445792685809332"
    },
    {
      "name": "Sushi dokoro Arima",
      "lat": 43.0567584,
      "lng": 141.3516195,
      "google_map_url":"https://maps.google.com/?cid=16322111436472886297"
    },
    {
      "name": "DEUX Ermitage",
      "lat": 43.0567747,
      "lng": 141.3516899,
      "google_map_url":"https://maps.google.com/?cid=12945657038955260990"
    },
    {
      "name": "Gannen",
      "lat": 43.0577927,
      "lng": 141.3588598,
      "google_map_url":"https://maps.google.com/?cid=17875721006272072141"
    },
    {
      "name": "デリー",
      "lat": 43.0578218,
      "lng": 141.357465,
      "google_map_url":"https://maps.google.com/?cid=1814298200568285176"
    },
    {
      "name": "Hamburg Steak North Continent -MACHI NO NAKA-",
      "lat": 43.058017,
      "lng": 141.356218,
      "google_map_url":"https://maps.google.com/?cid=8272369022919735856"
    },
    {
      "name": "Soup Curry GARAKU Sapporo Main Restaurant",
      "lat": 43.0580621,
      "lng": 141.355129,
      "google_map_url":"https://maps.google.com/?cid=16775367457305999515"
    },
    {
      "name": "Ta Ke E Sushi",
      "lat": 43.058411,
      "lng": 141.3583729,
      "google_map_url":"https://maps.google.com/?cid=8855188730519506118"
    },
    {
      "name": "Kitchen Nagamori",
      "lat": 43.0584772,
      "lng": 141.3586927,
      "google_map_url":"https://maps.google.com/?cid=9060010187085460671"
    },
    {
      "name": "Sakanayano Daidokoro",
      "lat": 43.0587872,
      "lng": 141.3588443,
      "google_map_url":"https://maps.google.com/?cid=5375987291419938725"
    },
    {
      "name": "stem",
      "lat": 43.0595041,
      "lng": 141.3586304,
      "google_map_url":"https://maps.google.com/?cid=9201214249215800526"
    },
    {
      "name": "Toshi",
      "lat": 43.0590637,
      "lng": 141.3547885,
      "google_map_url":"https://maps.google.com/?cid=12298518638388304122"
    },
    {
      "name": "Aji no Sanpei",
      "lat": 43.0588147,
      "lng": 141.3536269,
      "google_map_url":"https://maps.google.com/?cid=96482578506538433"
    },
    {
      "name": "Soup Curry Yellow",
      "lat": 43.0586116,
      "lng": 141.3513887,
      "google_map_url":"https://maps.google.com/?cid=6148221728022570627"
    },
    {
      "name": "Tonkatsu Aoki Sapporo",
      "lat": 43.0584845,
      "lng": 141.3501707,
      "google_map_url":"https://maps.google.com/?cid=6622199576649154644"
    },
    {
      "name": "Isenojo",
      "lat": 43.0566606,
      "lng": 141.3685231,
      "google_map_url":"https://maps.google.com/?cid=16822165703442177109"
    },
    {
      "name": "Yu (Chicken broth soba)",
      "lat": 43.0617538,
      "lng": 141.3750827,
      "google_map_url":"https://maps.google.com/?cid=10858533095378495300"
    },
    {
      "name": "Ozawa",
      "lat": 43.0571526,
      "lng": 141.3787838,
      "google_map_url":"https://maps.google.com/?cid=17200183551319324412"
    },
    {
      "name": "Ame wa, Yasashiku",
      "lat": 43.0693774,
      "lng": 141.4036633,
      "google_map_url":"https://maps.google.com/?cid=3959351339202218575"
    },
    {
      "name": "Sankatei",
      "lat": 43.055433,
      "lng": 141.3962972,
      "google_map_url":"https://maps.google.com/?cid=1482165051763685938"
    },
    {
      "name": "Chinese noodles California",
      "lat": 43.0543264,
      "lng": 141.3768994,
      "google_map_url":"https://maps.google.com/?cid=88832165738341204"
    },
    {
      "name": "Menya Nanabe",
      "lat": 43.04948,
      "lng": 141.4459516,
      "google_map_url":"https://maps.google.com/?cid=6590423228232167500"
    },
    {
      "name": "Da Massimo",
      "lat": 43.0482007,
      "lng": 141.4463584,
      "google_map_url":"https://maps.google.com/?cid=5326769069600589108"
    },
    {
      "name": "Furanoya",
      "lat": 43.0530331,
      "lng": 141.4713498,
      "google_map_url":"https://maps.google.com/?cid=4516586311476921875"
    },
    {
      "name": "Manji Shoyuya Ramen Sunpiazza Shop",
      "lat": 43.0378722,
      "lng": 141.47332,
      "google_map_url":"https://maps.google.com/?cid=5176772735428669135"
    },
    {
      "name": "眞麺 穂高",
      "lat": 43.028803,
      "lng": 141.4560196,
      "google_map_url":"https://maps.google.com/?cid=12141804905184882705"
    },
    {
      "name": "Fuyusai",
      "lat": 43.0243254,
      "lng": 141.4731697,
      "google_map_url":"https://maps.google.com/?cid=4902971995772697821"
    },
    {
      "name": "Shizen Mankitsu Club",
      "lat": 42.9469503,
      "lng": 141.4483141,
      "google_map_url":"https://maps.google.com/?cid=11619632961770217998"
    },
    {
      "name": "Potaufeu",
      "lat": 42.9830346,
      "lng": 141.438243,
      "google_map_url":"https://maps.google.com/?cid=15968900365667223063"
    },
    {
      "name": "RAMEN RS 改",
      "lat": 42.9943317,
      "lng": 141.4502429,
      "google_map_url":"https://maps.google.com/?cid=16151441677597739839"
    },
    {
      "name": "スープカレートムトムキキル",
      "lat": 42.9987432,
      "lng": 141.4314607,
      "google_map_url":"https://maps.google.com/?cid=17978125336721222838"
    },
    {
      "name": "Ramen TORA",
      "lat": 43.0095664,
      "lng": 141.4374374,
      "google_map_url":"https://maps.google.com/?cid=17741614333779219212"
    },
    {
      "name": "Twilight",
      "lat": 43.022521,
      "lng": 141.4377842,
      "google_map_url":"https://maps.google.com/?cid=11941836135476015425"
    },
    {
      "name": "Takezo",
      "lat": 43.0250715,
      "lng": 141.4339811,
      "google_map_url":"https://maps.google.com/?cid=10871845244720361908"
    },
    {
      "name": "ポレポレ",
      "lat": 43.028872,
      "lng": 141.4270067,
      "google_map_url":"https://maps.google.com/?cid=16599698285892232043"
    },
    {
      "name": "Tsukisappu Jingisukan Club",
      "lat": 43.0266612,
      "lng": 141.419375,
      "google_map_url":"https://maps.google.com/?cid=1305780456068515180"
    },
    {
      "name": "Ichimonji Curry Shop",
      "lat": 43.0352874,
      "lng": 141.4327744,
      "google_map_url":"https://maps.google.com/?cid=8233758937808234497"
    },
    {
      "name": "Hanauta",
      "lat": 43.0345547,
      "lng": 141.4125691,
      "google_map_url":"https://maps.google.com/?cid=17588564923789415598"
    },
    {
      "name": "Ramen Shinwa",
      "lat": 43.0350467,
      "lng": 141.4108711,
      "google_map_url":"https://maps.google.com/?cid=9534579284121631207"
    },
    {
      "name": "Magic Spice Sapporo Main Shop",
      "lat": 43.0410011,
      "lng": 141.4135745,
      "google_map_url":"https://maps.google.com/?cid=17586604089287379175"
    },
    {
      "name": "Ramen Yamasawa",
      "lat": 43.040261,
      "lng": 141.3975635,
      "google_map_url":"https://maps.google.com/?cid=3855267168170037038"
    },
    {
      "name": "Sushi Toriton Toyohira",
      "lat": 43.0506336,
      "lng": 141.3721361,
      "google_map_url":"https://maps.google.com/?cid=172791602120061703"
    },
    {
      "name": "Menya takahashi",
      "lat": 43.0121397,
      "lng": 141.4202544,
      "google_map_url":"https://maps.google.com/?cid=11944767652135598996"
    },
    {
      "name": "Ramen Yoshi",
      "lat": 43.0296604,
      "lng": 141.395488,
      "google_map_url":"https://maps.google.com/?cid=11573064567830260983"
    },
    {
      "name": "Furaido",
      "lat": 43.043357,
      "lng": 141.370535,
      "google_map_url":"https://maps.google.com/?cid=7308368153072803029"
    },
    {
      "name": "エイトカリィ平岸本店",
      "lat": 43.0411634,
      "lng": 141.3638283,
      "google_map_url":"https://maps.google.com/?cid=3445101666617935272"
    },
    {
      "name": "欧風カリードモン",
      "lat": 43.0396938,
      "lng": 141.3701402,
      "google_map_url":"https://maps.google.com/?cid=11745641329386993609"
    },
    {
      "name": "Haruichiya",
      "lat": 43.0344758,
      "lng": 141.3815507,
      "google_map_url":"https://maps.google.com/?cid=3662915742876310985"
    },
    {
      "name": "Sumire Nakanoshima Main Store",
      "lat": 43.0326729,
      "lng": 141.3616204,
      "google_map_url":"https://maps.google.com/?cid=13857840434257696287"
    },
    {
      "name": "Yama-Arashi",
      "lat": 43.0319028,
      "lng": 141.3639182,
      "google_map_url":"https://maps.google.com/?cid=11348359435680547154"
    },
    {
      "name": "Men-Eiji Hiragishi Base",
      "lat": 43.0293973,
      "lng": 141.366308,
      "google_map_url":"https://maps.google.com/?cid=1393336202250287227"
    },
    {
      "name": "SOUP CURRY KING",
      "lat": 43.0244163,
      "lng": 141.3678083,
      "google_map_url":"https://maps.google.com/?cid=13659881813102086444"
    },
    {
      "name": "Garyu Menbu Hien",
      "lat": 43.0234398,
      "lng": 141.3568865,
      "google_map_url":"https://maps.google.com/?cid=11317250960947734362"
    },
    {
      "name": "Sapporo Junren",
      "lat": 43.0208306,
      "lng": 141.3669134,
      "google_map_url":"https://maps.google.com/?cid=5865684843911522818"
    },
    {
      "name": "木多郎 澄川本店",
      "lat": 43.0123161,
      "lng": 141.3750482,
      "google_map_url":"https://maps.google.com/?cid=15443571214281290072"
    },
    {
      "name": "カレーリーブス",
      "lat": 43.0100993,
      "lng": 141.3874403,
      "google_map_url":"https://maps.google.com/?cid=863154155901345911"
    },
    {
      "name": "Menya Saimi",
      "lat": 43.0352658,
      "lng": 141.3819435,
      "google_map_url":"https://maps.google.com/?cid=13230786759453686988"
    }
]