[
    {
      "name": "炭焼地鶏 山蔵",
      "lat": 33.5257969,
      "lng": 130.5514152,
      "google_map_url":"https://maps.google.com/?cid=10190144139940501559"
    },
    {
      "name": "Kasanoya",
      "lat": 33.5194547,
      "lng": 130.5334317,
      "google_map_url":"https://maps.google.com/?cid=16637148433084021916"
    },
    {
      "name": "Bikkuritei Honten",
      "lat": 33.5428985,
      "lng": 130.4599911,
      "google_map_url":"https://maps.google.com/?cid=3374640822941057751"
    },
    {
      "name": "Takeuchi",
      "lat": 33.5204022,
      "lng": 130.4271089,
      "google_map_url":"https://maps.google.com/?cid=10164183710347141679"
    },
    {
      "name": "Sushi Osamu",
      "lat": 33.5468896,
      "lng": 130.396641,
      "google_map_url":"https://maps.google.com/?cid=10331112078832385303"
    },
    {
      "name": "Hakata Motsunabe Yamanaka main store",
      "lat": 33.5619412,
      "lng": 130.4245479,
      "google_map_url":"https://maps.google.com/?cid=5766412497907758505"
    },
    {
      "name": "Sailer",
      "lat": 33.5564471,
      "lng": 130.4003147,
      "google_map_url":"https://maps.google.com/?cid=16713378019832849230"
    },
    {
      "name": "Tempura Hirao Main Store",
      "lat": 33.5838348,
      "lng": 130.4565615,
      "google_map_url":"https://maps.google.com/?cid=8553018763670409200"
    },
    {
      "name": "restaurant mamagoto",
      "lat": 33.6263099,
      "lng": 130.429388,
      "google_map_url":"https://maps.google.com/?cid=9648369412609714039"
    },
    {
      "name": "Hakozaki Inokawazu",
      "lat": 33.6195826,
      "lng": 130.4195759,
      "google_map_url":"https://maps.google.com/?cid=10971139594967280792"
    },
    {
      "name": "Komaya",
      "lat": 33.6116256,
      "lng": 130.419405,
      "google_map_url":"https://maps.google.com/?cid=9842026478103222468"
    },
    {
      "name": "SACHiA Beef stroganoff",
      "lat": 33.6094236,
      "lng": 130.4187226,
      "google_map_url":"https://maps.google.com/?cid=3661558697801309401"
    },
    {
      "name": "Restaurant Sola",
      "lat": 33.6043538,
      "lng": 130.3988514,
      "google_map_url":"https://maps.google.com/?cid=6537414932695576293"
    },
    {
      "name": "Nishijin Hatsuki",
      "lat": 33.5820204,
      "lng": 130.3565515,
      "google_map_url":"https://maps.google.com/?cid=2512619085596615917"
    },
    {
      "name": "Jacques Ohori Shop",
      "lat": 33.5909542,
      "lng": 130.3751341,
      "google_map_url":"https://maps.google.com/?cid=6180875577308377875"
    },
    {
      "name": "TTOAHISU",
      "lat": 33.5915817,
      "lng": 130.3805898,
      "google_map_url":"https://maps.google.com/?cid=2700224372827711070"
    },
    {
      "name": "おのころ五合",
      "lat": 33.5925358,
      "lng": 130.3833127,
      "google_map_url":"https://maps.google.com/?cid=2208926050434647061"
    },
    {
      "name": "Cafe Bimi",
      "lat": 33.5827021,
      "lng": 130.3825088,
      "google_map_url":"https://maps.google.com/?cid=15474742106657865097"
    },
    {
      "name": "Motsushige",
      "lat": 33.5848801,
      "lng": 130.3877554,
      "google_map_url":"https://maps.google.com/?cid=14874829615864918129"
    },
    {
      "name": "Yorozu",
      "lat": 33.5845902,
      "lng": 130.3879599,
      "google_map_url":"https://maps.google.com/?cid=5601319327366524842"
    },
    {
      "name": "タン テール 富士",
      "lat": 33.5835998,
      "lng": 130.3891954,
      "google_map_url":"https://maps.google.com/?cid=12909738498961939906"
    },
    {
      "name": "Wappa Teishoku Restaurant",
      "lat": 33.5833416,
      "lng": 130.3896127,
      "google_map_url":"https://maps.google.com/?cid=8283311489824537804"
    },
    {
      "name": "Akasaka Komikan",
      "lat": 33.5860926,
      "lng": 130.3914958,
      "google_map_url":"https://maps.google.com/?cid=7901958240902963816"
    },
    {
      "name": "Yamanaka Akasaka",
      "lat": 33.5875425,
      "lng": 130.3908465,
      "google_map_url":"https://maps.google.com/?cid=11536954514415003809"
    },
    {
      "name": "Rikaen Daimyo (Main Restaurant)",
      "lat": 33.587993,
      "lng": 130.3912203,
      "google_map_url":"https://maps.google.com/?cid=8878134957405390012"
    },
    {
      "name": "CHIKAE Fukuoka Seafood Restaurant",
      "lat": 33.587798,
      "lng": 130.392063,
      "google_map_url":"https://maps.google.com/?cid=13972728301569760158"
    },
    {
      "name": "Tempura Hirao",
      "lat": 33.5888387,
      "lng": 130.3942887,
      "google_map_url":"https://maps.google.com/?cid=18392552247942850334"
    },
    {
      "name": "hakata gomasabaya",
      "lat": 33.5909686,
      "lng": 130.3930237,
      "google_map_url":"https://maps.google.com/?cid=684233769223001125"
    },
    {
      "name": "Hyotan Sushi",
      "lat": 33.5896294,
      "lng": 130.3987348,
      "google_map_url":"https://maps.google.com/?cid=1941832127262034526"
    },
    {
      "name": "TANCA",
      "lat": 33.5796031,
      "lng": 130.4092956,
      "google_map_url":"https://maps.google.com/?cid=8117623673288091426"
    },
    {
      "name": "FURUYA",
      "lat": 33.5760313,
      "lng": 130.4026562,
      "google_map_url":"https://maps.google.com/?cid=15653774556947160855"
    },
    {
      "name": "Kawaya",
      "lat": 33.5796047,
      "lng": 130.4043839,
      "google_map_url":"https://maps.google.com/?cid=15168464467263367962"
    },
    {
      "name": "16ku",
      "lat": 33.5786023,
      "lng": 130.3944021,
      "google_map_url":"https://maps.google.com/?cid=15002132961058903499"
    },
    {
      "name": "PRINCE of the FRUIT",
      "lat": 33.5789603,
      "lng": 130.3950086,
      "google_map_url":"https://maps.google.com/?cid=12840329077567833895"
    },
    {
      "name": "Gyoza Lee",
      "lat": 33.5811386,
      "lng": 130.4001007,
      "google_map_url":"https://maps.google.com/?cid=14196757176300070904"
    },
    {
      "name": "Pizzeria da Gaetano",
      "lat": 33.5828456,
      "lng": 130.402077,
      "google_map_url":"https://maps.google.com/?cid=13046991685962893441"
    },
    {
      "name": "Bomber kitchen",
      "lat": 33.5820789,
      "lng": 130.3963246,
      "google_map_url":"https://maps.google.com/?cid=5966566535435620853"
    },
    {
      "name": "Mengekijou Gen-ei",
      "lat": 33.5826611,
      "lng": 130.3941063,
      "google_map_url":"https://maps.google.com/?cid=7393756169715451132"
    },
    {
      "name": "Robata Hyakushiki",
      "lat": 33.584222,
      "lng": 130.3996877,
      "google_map_url":"https://maps.google.com/?cid=8279842321434564949"
    },
    {
      "name": "(Uochu)",
      "lat": 33.5854051,
      "lng": 130.3977491,
      "google_map_url":"https://maps.google.com/?cid=6124167395108513896"
    },
    {
      "name": "Velona",
      "lat": 33.586341,
      "lng": 130.401857,
      "google_map_url":"https://maps.google.com/?cid=10155933563298015001"
    },
    {
      "name": "Niku-no-Kaminaribashi",
      "lat": 33.5885076,
      "lng": 130.4025495,
      "google_map_url":"https://maps.google.com/?cid=3597262263138200821"
    },
    {
      "name": "Kaminaribashi",
      "lat": 33.5883985,
      "lng": 130.4027239,
      "google_map_url":"https://maps.google.com/?cid=18415270856854194797"
    },
    {
      "name": "Akamiya Cowsi",
      "lat": 33.5856102,
      "lng": 130.4071321,
      "google_map_url":"https://maps.google.com/?cid=17090226058922469214"
    },
    {
      "name": "Itookashi",
      "lat": 33.5883229,
      "lng": 130.406333,
      "google_map_url":"https://maps.google.com/?cid=339130654832217275"
    },
    {
      "name": "Kiharu",
      "lat": 33.5888379,
      "lng": 130.4051314,
      "google_map_url":"https://maps.google.com/?cid=9916624174748528040"
    },
    {
      "name": "きはるの胡麻鯖や",
      "lat": 33.5895661,
      "lng": 130.4052469,
      "google_map_url":"https://maps.google.com/?cid=16529594758309493362"
    },
    {
      "name": "Yakiniku Sudou Haruyoshi",
      "lat": 33.589591,
      "lng": 130.406154,
      "google_map_url":"https://maps.google.com/?cid=14402922242359580337"
    },
    {
      "name": "Dining hall Ginmi",
      "lat": 33.5907186,
      "lng": 130.404718,
      "google_map_url":"https://maps.google.com/?cid=1707287398092911450"
    },
    {
      "name": "Ganso Hakata Mentaiju Nishinakasu",
      "lat": 33.5912507,
      "lng": 130.404067,
      "google_map_url":"https://maps.google.com/?cid=16000112296655436028"
    },
    {
      "name": "Mihara Tofuten Fukuoka",
      "lat": 33.5911512,
      "lng": 130.4057461,
      "google_map_url":"https://maps.google.com/?cid=11985752906585256308"
    },
    {
      "name": "Tempura Hirao Tenjin ACROS Fukuoka",
      "lat": 33.5910506,
      "lng": 130.402272,
      "google_map_url":"https://maps.google.com/?cid=17175338040109247455"
    },
    {
      "name": "Nagahama Yatai Yamachan (Nakasu)",
      "lat": 33.5917626,
      "lng": 130.4077356,
      "google_map_url":"https://maps.google.com/?cid=17761173460595496801"
    },
    {
      "name": "Kawataro Nakasu",
      "lat": 33.5900659,
      "lng": 130.4093753,
      "google_map_url":"https://maps.google.com/?cid=6804491295783601415"
    },
    {
      "name": "Yoshizuka Unagi",
      "lat": 33.5925283,
      "lng": 130.4088671,
      "google_map_url":"https://maps.google.com/?cid=18295488444069659604"
    },
    {
      "name": "Seimonbarai",
      "lat": 33.5927466,
      "lng": 130.4100685,
      "google_map_url":"https://maps.google.com/?cid=3279271735874034146"
    },
    {
      "name": "Kalonoulon",
      "lat": 33.5924306,
      "lng": 130.4110349,
      "google_map_url":"https://maps.google.com/?cid=11298191549332263773"
    },
    {
      "name": "Yakiniku • Cold Noodles Daitoen (Main Store)",
      "lat": 33.592771,
      "lng": 130.411436,
      "google_map_url":"https://maps.google.com/?cid=7561051545393915502"
    },
    {
      "name": "Murata",
      "lat": 33.5937159,
      "lng": 130.4118177,
      "google_map_url":"https://maps.google.com/?cid=10524711181221675753"
    },
    {
      "name": "Daitoen Hanare Giontei",
      "lat": 33.5929612,
      "lng": 130.4133884,
      "google_map_url":"https://maps.google.com/?cid=6529923647089664138"
    },
    {
      "name": "Tanca",
      "lat": 33.5924993,
      "lng": 130.4020453,
      "google_map_url":"https://maps.google.com/?cid=8384739971844722807"
    },
    {
      "name": "Hagakure Udon",
      "lat": 33.583601,
      "lng": 130.424646,
      "google_map_url":"https://maps.google.com/?cid=4181118908731132815"
    },
    {
      "name": "Hakata Issou Honten",
      "lat": 33.586378,
      "lng": 130.4250999,
      "google_map_url":"https://maps.google.com/?cid=14997510692567609889"
    },
    {
      "name": "焼肉 多牛 博多駅南店",
      "lat": 33.5856452,
      "lng": 130.4237455,
      "google_map_url":"https://maps.google.com/?cid=4255671103552381247"
    },
    {
      "name": "Poultry Research Society",
      "lat": 33.5842639,
      "lng": 130.4196087,
      "google_map_url":"https://maps.google.com/?cid=2116234761678928324"
    },
    {
      "name": "Udon Taira",
      "lat": 33.5831793,
      "lng": 130.4160407,
      "google_map_url":"https://maps.google.com/?cid=14632460878750667045"
    },
    {
      "name": "Aji Fry Center Omuko-san",
      "lat": 33.585919,
      "lng": 130.4163282,
      "google_map_url":"https://maps.google.com/?cid=6074861557377942930"
    },
    {
      "name": "Shokudo Nizakana Shonen",
      "lat": 33.5871663,
      "lng": 130.4123369,
      "google_map_url":"https://maps.google.com/?cid=12298844299766932736"
    },
    {
      "name": "Chocolate Shop Hakata no Ishidatami",
      "lat": 33.5904583,
      "lng": 130.4200131,
      "google_map_url":"https://maps.google.com/?cid=6928776831111734894"
    },
    {
      "name": "Tarougen",
      "lat": 33.5895718,
      "lng": 130.4152159,
      "google_map_url":"https://maps.google.com/?cid=11405524611432043460"
    },
    {
      "name": "Sonohen",
      "lat": 33.5950642,
      "lng": 130.410685,
      "google_map_url":"https://maps.google.com/?cid=8502318727899340927"
    },
    {
      "name": "Kappō Yoshida",
      "lat": 33.5963707,
      "lng": 130.410327,
      "google_map_url":"https://maps.google.com/?cid=11175386012556088205"
    },
    {
      "name": "Miyake",
      "lat": 33.5983532,
      "lng": 130.4106935,
      "google_map_url":"https://maps.google.com/?cid=10615576507209945180"
    },
    {
      "name": "Chocolate Shop Main Store",
      "lat": 33.5971513,
      "lng": 130.4080029,
      "google_map_url":"https://maps.google.com/?cid=8619569029654548515"
    },
    {
      "name": "Susaki Stall Kajishika",
      "lat": 33.5987993,
      "lng": 130.405394,
      "google_map_url":"https://maps.google.com/?cid=9126534488334050422"
    },
    {
      "name": "Hakata Genki Ippai!!",
      "lat": 33.600831,
      "lng": 130.4073443,
      "google_map_url":"https://maps.google.com/?cid=4563141796542890085"
    }
]