<?xml version="1.0" encoding="UTF-8"?>
<kml xmlns="http://www.opengis.net/kml/2.2">
  <Document>
    <name>Fukuoka Map</name>
    <description/>
    <Style id="icon-1899-0288D1-nodesc-normal">
      <IconStyle>
        <color>ffd18802</color>
        <scale>1</scale>
        <Icon>
          <href>https://www.gstatic.com/mapspro/images/stock/503-wht-blank_maps.png</href>
        </Icon>
        <hotSpot x="32" xunits="pixels" y="64" yunits="insetPixels"/>
      </IconStyle>
      <LabelStyle>
        <scale>0</scale>
      </LabelStyle>
      <BalloonStyle>
        <text><![CDATA[<h3>$[name]</h3>]]></text>
      </BalloonStyle>
    </Style>
    <Style id="icon-1899-0288D1-nodesc-highlight">
      <IconStyle>
        <color>ffd18802</color>
        <scale>1</scale>
        <Icon>
          <href>https://www.gstatic.com/mapspro/images/stock/503-wht-blank_maps.png</href>
        </Icon>
        <hotSpot x="32" xunits="pixels" y="64" yunits="insetPixels"/>
      </IconStyle>
      <LabelStyle>
        <scale>1</scale>
      </LabelStyle>
      <BalloonStyle>
        <text><![CDATA[<h3>$[name]</h3>]]></text>
      </BalloonStyle>
    </Style>
    <StyleMap id="icon-1899-0288D1-nodesc">
      <Pair>
        <key>normal</key>
        <styleUrl>#icon-1899-0288D1-nodesc-normal</styleUrl>
      </Pair>
      <Pair>
        <key>highlight</key>
        <styleUrl>#icon-1899-0288D1-nodesc-highlight</styleUrl>
      </Pair>
    </StyleMap>
    <Folder>
      <name>Fukuoka Restaurants</name>
      <Placemark>
        <name>炭焼地鶏 山蔵</name>
        <styleUrl>#icon-1899-0288D1-nodesc</styleUrl>
        <Point>
          <coordinates>
            130.5514152,33.5257969,0
          </coordinates>
        </Point>
      </Placemark>
      <Placemark>
        <name>Kasanoya</name>
        <styleUrl>#icon-1899-0288D1-nodesc</styleUrl>
        <Point>
          <coordinates>
            130.5334317,33.5194547,0
          </coordinates>
        </Point>
      </Placemark>
      <Placemark>
        <name>Bikkuritei Honten</name>
        <styleUrl>#icon-1899-0288D1-nodesc</styleUrl>
        <Point>
          <coordinates>
            130.4599911,33.5428985,0
          </coordinates>
        </Point>
      </Placemark>
      <Placemark>
        <name>Takeuchi</name>
        <styleUrl>#icon-1899-0288D1-nodesc</styleUrl>
        <Point>
          <coordinates>
            130.4271089,33.5204022,0
          </coordinates>
        </Point>
      </Placemark>
      <Placemark>
        <name>Sushi Osamu</name>
        <styleUrl>#icon-1899-0288D1-nodesc</styleUrl>
        <Point>
          <coordinates>
            130.396641,33.5468896,0
          </coordinates>
        </Point>
      </Placemark>
      <Placemark>
        <name>Hakata Motsunabe Yamanaka main store</name>
        <styleUrl>#icon-1899-0288D1-nodesc</styleUrl>
        <Point>
          <coordinates>
            130.4245479,33.5619412,0
          </coordinates>
        </Point>
      </Placemark>
      <Placemark>
        <name>Sailer</name>
        <styleUrl>#icon-1899-0288D1-nodesc</styleUrl>
        <Point>
          <coordinates>
            130.4003147,33.5564471,0
          </coordinates>
        </Point>
      </Placemark>
      <Placemark>
        <name>Tempura Hirao Main Store</name>
        <styleUrl>#icon-1899-0288D1-nodesc</styleUrl>
        <Point>
          <coordinates>
            130.4565615,33.5838348,0
          </coordinates>
        </Point>
      </Placemark>
      <Placemark>
        <name>restaurant mamagoto</name>
        <styleUrl>#icon-1899-0288D1-nodesc</styleUrl>
        <Point>
          <coordinates>
            130.429388,33.6263099,0
          </coordinates>
        </Point>
      </Placemark>
      <Placemark>
        <name>Hakozaki Inokawazu</name>
        <styleUrl>#icon-1899-0288D1-nodesc</styleUrl>
        <Point>
          <coordinates>
            130.4195759,33.6195826,0
          </coordinates>
        </Point>
      </Placemark>
      <Placemark>
        <name>Komaya</name>
        <styleUrl>#icon-1899-0288D1-nodesc</styleUrl>
        <Point>
          <coordinates>
            130.419405,33.6116256,0
          </coordinates>
        </Point>
      </Placemark>
      <Placemark>
        <name>SACHiA Beef stroganoff</name>
        <styleUrl>#icon-1899-0288D1-nodesc</styleUrl>
        <Point>
          <coordinates>
            130.4187226,33.6094236,0
          </coordinates>
        </Point>
      </Placemark>
      <Placemark>
        <name>Restaurant Sola</name>
        <styleUrl>#icon-1899-0288D1-nodesc</styleUrl>
        <Point>
          <coordinates>
            130.3988514,33.6043538,0
          </coordinates>
        </Point>
      </Placemark>
      <Placemark>
        <name>Nishijin Hatsuki</name>
        <styleUrl>#icon-1899-0288D1-nodesc</styleUrl>
        <Point>
          <coordinates>
            130.3565515,33.5820204,0
          </coordinates>
        </Point>
      </Placemark>
      <Placemark>
        <name>Jacques Ohori Shop</name>
        <styleUrl>#icon-1899-0288D1-nodesc</styleUrl>
        <Point>
          <coordinates>
            130.3751341,33.5909542,0
          </coordinates>
        </Point>
      </Placemark>
      <Placemark>
        <name>TTOAHISU</name>
        <styleUrl>#icon-1899-0288D1-nodesc</styleUrl>
        <Point>
          <coordinates>
            130.3805898,33.5915817,0
          </coordinates>
        </Point>
      </Placemark>
      <Placemark>
        <name>おのころ五合</name>
        <styleUrl>#icon-1899-0288D1-nodesc</styleUrl>
        <Point>
          <coordinates>
            130.3833127,33.5925358,0
          </coordinates>
        </Point>
      </Placemark>
      <Placemark>
        <name>Cafe Bimi</name>
        <styleUrl>#icon-1899-0288D1-nodesc</styleUrl>
        <Point>
          <coordinates>
            130.3825088,33.5827021,0
          </coordinates>
        </Point>
      </Placemark>
      <Placemark>
        <name>Motsushige</name>
        <styleUrl>#icon-1899-0288D1-nodesc</styleUrl>
        <Point>
          <coordinates>
            130.3877554,33.5848801,0
          </coordinates>
        </Point>
      </Placemark>
      <Placemark>
        <name>Yorozu</name>
        <styleUrl>#icon-1899-0288D1-nodesc</styleUrl>
        <Point>
          <coordinates>
            130.3879599,33.5845902,0
          </coordinates>
        </Point>
      </Placemark>
      <Placemark>
        <name>タン テール 富士</name>
        <styleUrl>#icon-1899-0288D1-nodesc</styleUrl>
        <Point>
          <coordinates>
            130.3891954,33.5835998,0
          </coordinates>
        </Point>
      </Placemark>
      <Placemark>
        <name>Wappa Teishoku Restaurant</name>
        <styleUrl>#icon-1899-0288D1-nodesc</styleUrl>
        <Point>
          <coordinates>
            130.3896127,33.5833416,0
          </coordinates>
        </Point>
      </Placemark>
      <Placemark>
        <name>Akasaka Komikan</name>
        <styleUrl>#icon-1899-0288D1-nodesc</styleUrl>
        <Point>
          <coordinates>
            130.3914958,33.5860926,0
          </coordinates>
        </Point>
      </Placemark>
      <Placemark>
        <name>Yamanaka Akasaka</name>
        <styleUrl>#icon-1899-0288D1-nodesc</styleUrl>
        <Point>
          <coordinates>
            130.3908465,33.5875425,0
          </coordinates>
        </Point>
      </Placemark>
      <Placemark>
        <name>Rikaen Daimyo (Main Restaurant)</name>
        <styleUrl>#icon-1899-0288D1-nodesc</styleUrl>
        <Point>
          <coordinates>
            130.3912203,33.587993,0
          </coordinates>
        </Point>
      </Placemark>
      <Placemark>
        <name>CHIKAE Fukuoka Seafood Restaurant</name>
        <styleUrl>#icon-1899-0288D1-nodesc</styleUrl>
        <Point>
          <coordinates>
            130.392063,33.587798,0
          </coordinates>
        </Point>
      </Placemark>
      <Placemark>
        <name>Tempura Hirao</name>
        <styleUrl>#icon-1899-0288D1-nodesc</styleUrl>
        <Point>
          <coordinates>
            130.3942887,33.5888387,0
          </coordinates>
        </Point>
      </Placemark>
      <Placemark>
        <name>hakata gomasabaya</name>
        <styleUrl>#icon-1899-0288D1-nodesc</styleUrl>
        <Point>
          <coordinates>
            130.3930237,33.5909686,0
          </coordinates>
        </Point>
      </Placemark>
      <Placemark>
        <name>Hyotan Sushi</name>
        <styleUrl>#icon-1899-0288D1-nodesc</styleUrl>
        <Point>
          <coordinates>
            130.3987348,33.5896294,0
          </coordinates>
        </Point>
      </Placemark>
      <Placemark>
        <name>TANCA</name>
        <styleUrl>#icon-1899-0288D1-nodesc</styleUrl>
        <Point>
          <coordinates>
            130.4092956,33.5796031,0
          </coordinates>
        </Point>
      </Placemark>
      <Placemark>
        <name>FURUYA</name>
        <styleUrl>#icon-1899-0288D1-nodesc</styleUrl>
        <Point>
          <coordinates>
            130.4026562,33.5760313,0
          </coordinates>
        </Point>
      </Placemark>
      <Placemark>
        <name>Kawaya</name>
        <styleUrl>#icon-1899-0288D1-nodesc</styleUrl>
        <Point>
          <coordinates>
            130.4043839,33.5796047,0
          </coordinates>
        </Point>
      </Placemark>
      <Placemark>
        <name>16ku</name>
        <styleUrl>#icon-1899-0288D1-nodesc</styleUrl>
        <Point>
          <coordinates>
            130.3944021,33.5786023,0
          </coordinates>
        </Point>
      </Placemark>
      <Placemark>
        <name>PRINCE of the FRUIT</name>
        <styleUrl>#icon-1899-0288D1-nodesc</styleUrl>
        <Point>
          <coordinates>
            130.3950086,33.5789603,0
          </coordinates>
        </Point>
      </Placemark>
      <Placemark>
        <name>Gyoza Lee</name>
        <styleUrl>#icon-1899-0288D1-nodesc</styleUrl>
        <Point>
          <coordinates>
            130.4001007,33.5811386,0
          </coordinates>
        </Point>
      </Placemark>
      <Placemark>
        <name>Pizzeria da Gaetano</name>
        <styleUrl>#icon-1899-0288D1-nodesc</styleUrl>
        <Point>
          <coordinates>
            130.402077,33.5828456,0
          </coordinates>
        </Point>
      </Placemark>
      <Placemark>
        <name>Bomber kitchen</name>
        <styleUrl>#icon-1899-0288D1-nodesc</styleUrl>
        <Point>
          <coordinates>
            130.3963246,33.5820789,0
          </coordinates>
        </Point>
      </Placemark>
      <Placemark>
        <name>Mengekijou Gen-ei</name>
        <styleUrl>#icon-1899-0288D1-nodesc</styleUrl>
        <Point>
          <coordinates>
            130.3941063,33.5826611,0
          </coordinates>
        </Point>
      </Placemark>
      <Placemark>
        <name>Robata Hyakushiki</name>
        <styleUrl>#icon-1899-0288D1-nodesc</styleUrl>
        <Point>
          <coordinates>
            130.3996877,33.584222,0
          </coordinates>
        </Point>
      </Placemark>
      <Placemark>
        <name>(Uochu)</name>
        <styleUrl>#icon-1899-0288D1-nodesc</styleUrl>
        <Point>
          <coordinates>
            130.3977491,33.5854051,0
          </coordinates>
        </Point>
      </Placemark>
      <Placemark>
        <name>Velona</name>
        <styleUrl>#icon-1899-0288D1-nodesc</styleUrl>
        <Point>
          <coordinates>
            130.401857,33.586341,0
          </coordinates>
        </Point>
      </Placemark>
      <Placemark>
        <name>Niku-no-Kaminaribashi</name>
        <styleUrl>#icon-1899-0288D1-nodesc</styleUrl>
        <Point>
          <coordinates>
            130.4025495,33.5885076,0
          </coordinates>
        </Point>
      </Placemark>
      <Placemark>
        <name>Kaminaribashi</name>
        <styleUrl>#icon-1899-0288D1-nodesc</styleUrl>
        <Point>
          <coordinates>
            130.4027239,33.5883985,0
          </coordinates>
        </Point>
      </Placemark>
      <Placemark>
        <name>Akamiya Cowsi</name>
        <styleUrl>#icon-1899-0288D1-nodesc</styleUrl>
        <Point>
          <coordinates>
            130.4071321,33.5856102,0
          </coordinates>
        </Point>
      </Placemark>
      <Placemark>
        <name>Itookashi</name>
        <styleUrl>#icon-1899-0288D1-nodesc</styleUrl>
        <Point>
          <coordinates>
            130.406333,33.5883229,0
          </coordinates>
        </Point>
      </Placemark>
      <Placemark>
        <name>Kiharu</name>
        <styleUrl>#icon-1899-0288D1-nodesc</styleUrl>
        <Point>
          <coordinates>
            130.4051314,33.5888379,0
          </coordinates>
        </Point>
      </Placemark>
      <Placemark>
        <name>きはるの胡麻鯖や</name>
        <styleUrl>#icon-1899-0288D1-nodesc</styleUrl>
        <Point>
          <coordinates>
            130.4052469,33.5895661,0
          </coordinates>
        </Point>
      </Placemark>
      <Placemark>
        <name>Yakiniku Sudou Haruyoshi</name>
        <styleUrl>#icon-1899-0288D1-nodesc</styleUrl>
        <Point>
          <coordinates>
            130.406154,33.589591,0
          </coordinates>
        </Point>
      </Placemark>
      <Placemark>
        <name>Dining hall Ginmi</name>
        <styleUrl>#icon-1899-0288D1-nodesc</styleUrl>
        <Point>
          <coordinates>
            130.404718,33.5907186,0
          </coordinates>
        </Point>
      </Placemark>
      <Placemark>
        <name>Ganso Hakata Mentaiju Nishinakasu</name>
        <styleUrl>#icon-1899-0288D1-nodesc</styleUrl>
        <Point>
          <coordinates>
            130.404067,33.5912507,0
          </coordinates>
        </Point>
      </Placemark>
      <Placemark>
        <name>Mihara Tofuten Fukuoka</name>
        <styleUrl>#icon-1899-0288D1-nodesc</styleUrl>
        <Point>
          <coordinates>
            130.4057461,33.5911512,0
          </coordinates>
        </Point>
      </Placemark>
      <Placemark>
        <name>Tempura Hirao Tenjin ACROS Fukuoka</name>
        <styleUrl>#icon-1899-0288D1-nodesc</styleUrl>
        <Point>
          <coordinates>
            130.402272,33.5910506,0
          </coordinates>
        </Point>
      </Placemark>
      <Placemark>
        <name>Nagahama Yatai Yamachan (Nakasu)</name>
        <styleUrl>#icon-1899-0288D1-nodesc</styleUrl>
        <Point>
          <coordinates>
            130.4077356,33.5917626,0
          </coordinates>
        </Point>
      </Placemark>
      <Placemark>
        <name>Kawataro Nakasu</name>
        <styleUrl>#icon-1899-0288D1-nodesc</styleUrl>
        <Point>
          <coordinates>
            130.4093753,33.5900659,0
          </coordinates>
        </Point>
      </Placemark>
      <Placemark>
        <name>Yoshizuka Unagi</name>
        <styleUrl>#icon-1899-0288D1-nodesc</styleUrl>
        <Point>
          <coordinates>
            130.4088671,33.5925283,0
          </coordinates>
        </Point>
      </Placemark>
      <Placemark>
        <name>Seimonbarai</name>
        <styleUrl>#icon-1899-0288D1-nodesc</styleUrl>
        <Point>
          <coordinates>
            130.4100685,33.5927466,0
          </coordinates>
        </Point>
      </Placemark>
      <Placemark>
        <name>Kalonoulon</name>
        <styleUrl>#icon-1899-0288D1-nodesc</styleUrl>
        <Point>
          <coordinates>
            130.4110349,33.5924306,0
          </coordinates>
        </Point>
      </Placemark>
      <Placemark>
        <name>Yakiniku • Cold Noodles Daitoen (Main Store)</name>
        <styleUrl>#icon-1899-0288D1-nodesc</styleUrl>
        <Point>
          <coordinates>
            130.411436,33.592771,0
          </coordinates>
        </Point>
      </Placemark>
      <Placemark>
        <name>Murata</name>
        <styleUrl>#icon-1899-0288D1-nodesc</styleUrl>
        <Point>
          <coordinates>
            130.4118177,33.5937159,0
          </coordinates>
        </Point>
      </Placemark>
      <Placemark>
        <name>Daitoen Hanare Giontei</name>
        <styleUrl>#icon-1899-0288D1-nodesc</styleUrl>
        <Point>
          <coordinates>
            130.4133884,33.5929612,0
          </coordinates>
        </Point>
      </Placemark>
      <Placemark>
        <name>Tanca</name>
        <styleUrl>#icon-1899-0288D1-nodesc</styleUrl>
        <Point>
          <coordinates>
            130.4020453,33.5924993,0
          </coordinates>
        </Point>
      </Placemark>
      <Placemark>
        <name>Hagakure Udon</name>
        <styleUrl>#icon-1899-0288D1-nodesc</styleUrl>
        <Point>
          <coordinates>
            130.424646,33.583601,0
          </coordinates>
        </Point>
      </Placemark>
      <Placemark>
        <name>Hakata Issou Honten</name>
        <styleUrl>#icon-1899-0288D1-nodesc</styleUrl>
        <Point>
          <coordinates>
            130.4250999,33.586378,0
          </coordinates>
        </Point>
      </Placemark>
      <Placemark>
        <name>焼肉 多牛 博多駅南店</name>
        <styleUrl>#icon-1899-0288D1-nodesc</styleUrl>
        <Point>
          <coordinates>
            130.4237455,33.5856452,0
          </coordinates>
        </Point>
      </Placemark>
      <Placemark>
        <name>Poultry Research Society</name>
        <styleUrl>#icon-1899-0288D1-nodesc</styleUrl>
        <Point>
          <coordinates>
            130.4196087,33.5842639,0
          </coordinates>
        </Point>
      </Placemark>
      <Placemark>
        <name>Udon Taira</name>
        <styleUrl>#icon-1899-0288D1-nodesc</styleUrl>
        <Point>
          <coordinates>
            130.4160407,33.5831793,0
          </coordinates>
        </Point>
      </Placemark>
      <Placemark>
        <name>Aji Fry Center Omuko-san</name>
        <styleUrl>#icon-1899-0288D1-nodesc</styleUrl>
        <Point>
          <coordinates>
            130.4163282,33.585919,0
          </coordinates>
        </Point>
      </Placemark>
      <Placemark>
        <name>Shokudo Nizakana Shonen</name>
        <styleUrl>#icon-1899-0288D1-nodesc</styleUrl>
        <Point>
          <coordinates>
            130.4123369,33.5871663,0
          </coordinates>
        </Point>
      </Placemark>
      <Placemark>
        <name>Chocolate Shop Hakata no Ishidatami</name>
        <styleUrl>#icon-1899-0288D1-nodesc</styleUrl>
        <Point>
          <coordinates>
            130.4200131,33.5904583,0
          </coordinates>
        </Point>
      </Placemark>
      <Placemark>
        <name>Tarougen</name>
        <styleUrl>#icon-1899-0288D1-nodesc</styleUrl>
        <Point>
          <coordinates>
            130.4152159,33.5895718,0
          </coordinates>
        </Point>
      </Placemark>
      <Placemark>
        <name>Sonohen</name>
        <styleUrl>#icon-1899-0288D1-nodesc</styleUrl>
        <Point>
          <coordinates>
            130.410685,33.5950642,0
          </coordinates>
        </Point>
      </Placemark>
      <Placemark>
        <name>Kappō Yoshida</name>
        <styleUrl>#icon-1899-0288D1-nodesc</styleUrl>
        <Point>
          <coordinates>
            130.410327,33.5963707,0
          </coordinates>
        </Point>
      </Placemark>
      <Placemark>
        <name>Miyake</name>
        <styleUrl>#icon-1899-0288D1-nodesc</styleUrl>
        <Point>
          <coordinates>
            130.4106935,33.5983532,0
          </coordinates>
        </Point>
      </Placemark>
      <Placemark>
        <name>Chocolate Shop Main Store</name>
        <styleUrl>#icon-1899-0288D1-nodesc</styleUrl>
        <Point>
          <coordinates>
            130.4080029,33.5971513,0
          </coordinates>
        </Point>
      </Placemark>
      <Placemark>
        <name>Susaki Stall Kajishika</name>
        <styleUrl>#icon-1899-0288D1-nodesc</styleUrl>
        <Point>
          <coordinates>
            130.405394,33.5987993,0
          </coordinates>
        </Point>
      </Placemark>
      <Placemark>
        <name>Hakata Genki Ippai!!</name>
        <styleUrl>#icon-1899-0288D1-nodesc</styleUrl>
        <Point>
          <coordinates>
            130.4073443,33.600831,0
          </coordinates>
        </Point>
      </Placemark>
      <Placemark>
        <name>BIOTOP (ビオトープ) FUKUOKA</name>
        <styleUrl>#icon-1899-0288D1-nodesc</styleUrl>
        <Point>
          <coordinates>
            130.3821434,33.5826979,0
          </coordinates>
        </Point>
      </Placemark>
    </Folder>
    <Folder>
      <name>Fukuoka Attractions</name>
      <Placemark>
        <name>Sakurai Shrine Futamigaura Torii</name>
        <styleUrl>#icon-1899-0288D1-nodesc</styleUrl>
        <Point>
          <coordinates>
            130.1969992,33.6395325,0
          </coordinates>
        </Point>
      </Placemark>
      <Placemark>
        <name>Shiomi Park Observatory</name>
        <styleUrl>#icon-1899-0288D1-nodesc</styleUrl>
        <Point>
          <coordinates>
            130.3071421,33.6745187,0
          </coordinates>
        </Point>
      </Placemark>
      <Placemark>
        <name>Shikaumi Shrine</name>
        <styleUrl>#icon-1899-0288D1-nodesc</styleUrl>
        <Point>
          <coordinates>
            130.3132267,33.6679005,0
          </coordinates>
        </Point>
      </Placemark>
      <Placemark>
        <name>Uminonakamichi Seaside Park</name>
        <styleUrl>#icon-1899-0288D1-nodesc</styleUrl>
        <Point>
          <coordinates>
            130.3616,33.6642785,0
          </coordinates>
        </Point>
      </Placemark>
      <Placemark>
        <name>Kyushu National Museum</name>
        <styleUrl>#icon-1899-0288D1-nodesc</styleUrl>
        <Point>
          <coordinates>
            130.5381224,33.5182578,0
          </coordinates>
        </Point>
      </Placemark>
      <Placemark>
        <name>Dazaifu-tenmangu Shrine</name>
        <styleUrl>#icon-1899-0288D1-nodesc</styleUrl>
        <Point>
          <coordinates>
            130.5348239,33.5213697,0
          </coordinates>
        </Point>
      </Placemark>
      <Placemark>
        <name>Nanzoin Temple</name>
        <styleUrl>#icon-1899-0288D1-nodesc</styleUrl>
        <Point>
          <coordinates>
            130.5729783,33.619838,0
          </coordinates>
        </Point>
      </Placemark>
      <Placemark>
        <name>Tochoji Temple</name>
        <styleUrl>#icon-1899-0288D1-nodesc</styleUrl>
        <Point>
          <coordinates>
            130.4143877,33.5949498,0
          </coordinates>
        </Point>
      </Placemark>
      <Placemark>
        <name>CANAL CITY HAKATA</name>
        <styleUrl>#icon-1899-0288D1-nodesc</styleUrl>
        <Point>
          <coordinates>
            130.4109478,33.5896305,0
          </coordinates>
        </Point>
      </Placemark>
      <Placemark>
        <name>Fukuoka Asian Art Museum</name>
        <styleUrl>#icon-1899-0288D1-nodesc</styleUrl>
        <Point>
          <coordinates>
            130.4058401,33.595182,0
          </coordinates>
        </Point>
      </Placemark>
      <Placemark>
        <name>Fukuoka Zoo and Botanical Garden</name>
        <styleUrl>#icon-1899-0288D1-nodesc</styleUrl>
        <Point>
          <coordinates>
            130.3910108,33.5728036,0
          </coordinates>
        </Point>
      </Placemark>
      <Placemark>
        <name>Fukuoka Castle Ruins</name>
        <styleUrl>#icon-1899-0288D1-nodesc</styleUrl>
        <Point>
          <coordinates>
            130.3832159,33.5852452,0
          </coordinates>
        </Point>
      </Placemark>
      <Placemark>
        <name>Fukuoka Art Museum</name>
        <styleUrl>#icon-1899-0288D1-nodesc</styleUrl>
        <Point>
          <coordinates>
            130.3796718,33.5841636,0
          </coordinates>
        </Point>
      </Placemark>
      <Placemark>
        <name>Ohori Park</name>
        <styleUrl>#icon-1899-0288D1-nodesc</styleUrl>
        <Point>
          <coordinates>
            130.3764646,33.5862065,0
          </coordinates>
        </Point>
      </Placemark>
      <Placemark>
        <name>Fukuoka City Museum</name>
        <styleUrl>#icon-1899-0288D1-nodesc</styleUrl>
        <Point>
          <coordinates>
            130.353064,33.589786,0
          </coordinates>
        </Point>
      </Placemark>
      <Placemark>
        <name>Fukuoka Tower</name>
        <styleUrl>#icon-1899-0288D1-nodesc</styleUrl>
        <Point>
          <coordinates>
            130.35151,33.5932846,0
          </coordinates>
        </Point>
      </Placemark>
      <Placemark>
        <name>Momochi Seaside Park</name>
        <styleUrl>#icon-1899-0288D1-nodesc</styleUrl>
        <Point>
          <coordinates>
            130.3512594,33.5945933,0
          </coordinates>
        </Point>
      </Placemark>
    </Folder>
    <Folder>
      <name>Fukuoka Shopping</name>
      <Placemark>
        <name>Bshop 天神ONE FUKUOKA BLDG店</name>
        <styleUrl>#icon-1899-0288D1-nodesc</styleUrl>
        <Point>
          <coordinates>
            130.3993292,33.5912877,0
          </coordinates>
        </Point>
      </Placemark>
      <Placemark>
        <name>Bshop</name>
        <styleUrl>#icon-1899-0288D1-nodesc</styleUrl>
        <Point>
          <coordinates>
            130.4197045,33.5899975,0
          </coordinates>
        </Point>
      </Placemark>
      <Placemark>
        <name>ＵＮＲＥＡＬＲＥＡＬＣＬＯＴＨＥＳ</name>
        <styleUrl>#icon-1899-0288D1-nodesc</styleUrl>
        <Point>
          <coordinates>
            130.400343,33.586783,0
          </coordinates>
        </Point>
      </Placemark>
      <Placemark>
        <name>knot</name>
        <styleUrl>#icon-1899-0288D1-nodesc</styleUrl>
        <Point>
          <coordinates>
            130.4004643,33.5839724,0
          </coordinates>
        </Point>
      </Placemark>
      <Placemark>
        <name><![CDATA[Dice&Dice / ダイスアンドダイス]]></name>
        <styleUrl>#icon-1899-0288D1-nodesc</styleUrl>
        <Point>
          <coordinates>
            130.3965218,33.5852623,0
          </coordinates>
        </Point>
      </Placemark>
      <Placemark>
        <name>KAPITAL</name>
        <styleUrl>#icon-1899-0288D1-nodesc</styleUrl>
        <Point>
          <coordinates>
            130.3945703,33.5866133,0
          </coordinates>
        </Point>
      </Placemark>
      <Placemark>
        <name>Takayamashichiten Hanbaikasugaten</name>
        <styleUrl>#icon-1899-0288D1-nodesc</styleUrl>
        <Point>
          <coordinates>
            130.450484,33.5411332,0
          </coordinates>
        </Point>
      </Placemark>
      <Placemark>
        <name>Kawabata Shopping Arcade</name>
        <styleUrl>#icon-1899-0288D1-nodesc</styleUrl>
        <Point>
          <coordinates>
            130.4083423,33.593537,0
          </coordinates>
        </Point>
      </Placemark>
      <Placemark>
        <name>Iwataya Main Store</name>
        <styleUrl>#icon-1899-0288D1-nodesc</styleUrl>
        <Point>
          <coordinates>
            130.397425,33.588842,0
          </coordinates>
        </Point>
      </Placemark>
      <Placemark>
        <name>Hakata Hankyu</name>
        <styleUrl>#icon-1899-0288D1-nodesc</styleUrl>
        <Point>
          <coordinates>
            130.4198378,33.589364,0
          </coordinates>
        </Point>
      </Placemark>
    </Folder>
  </Document>
</kml>
