<?xml version="1.0" encoding="UTF-8"?>
<kml xmlns="http://www.opengis.net/kml/2.2">
  <Document>
    <name>Kyoto map</name>
    <description/>
    <Style id="icon-1899-0288D1-nodesc-normal">
      <IconStyle>
        <color>ffd18802</color>
        <scale>1</scale>
        <Icon>
          <href>https://www.gstatic.com/mapspro/images/stock/503-wht-blank_maps.png</href>
        </Icon>
        <hotSpot x="32" xunits="pixels" y="64" yunits="insetPixels"/>
      </IconStyle>
      <LabelStyle>
        <scale>0</scale>
      </LabelStyle>
      <BalloonStyle>
        <text><![CDATA[<h3>$[name]</h3>]]></text>
      </BalloonStyle>
    </Style>
    <Style id="icon-1899-0288D1-nodesc-highlight">
      <IconStyle>
        <color>ffd18802</color>
        <scale>1</scale>
        <Icon>
          <href>https://www.gstatic.com/mapspro/images/stock/503-wht-blank_maps.png</href>
        </Icon>
        <hotSpot x="32" xunits="pixels" y="64" yunits="insetPixels"/>
      </IconStyle>
      <LabelStyle>
        <scale>1</scale>
      </LabelStyle>
      <BalloonStyle>
        <text><![CDATA[<h3>$[name]</h3>]]></text>
      </BalloonStyle>
    </Style>
    <StyleMap id="icon-1899-0288D1-nodesc">
      <Pair>
        <key>normal</key>
        <styleUrl>#icon-1899-0288D1-nodesc-normal</styleUrl>
      </Pair>
      <Pair>
        <key>highlight</key>
        <styleUrl>#icon-1899-0288D1-nodesc-highlight</styleUrl>
      </Pair>
    </StyleMap>
    <Folder>
      <name>Kyoto Restaurants</name>
      <Placemark>
        <name>Misonobashi Sakai</name>
        <styleUrl>#icon-1899-0288D1-nodesc</styleUrl>
        <Point>
          <coordinates>
            135.7470652,35.0571246,0
          </coordinates>
        </Point>
      </Placemark>
      <Placemark>
        <name>Briant（ブリアン）北山本店</name>
        <styleUrl>#icon-1899-0288D1-nodesc</styleUrl>
        <Point>
          <coordinates>
            135.7640149,35.0513094,0
          </coordinates>
        </Point>
      </Placemark>
      <Placemark>
        <name>Shogetsu</name>
        <styleUrl>#icon-1899-0288D1-nodesc</styleUrl>
        <Point>
          <coordinates>
            135.7525947,35.0443863,0
          </coordinates>
        </Point>
      </Placemark>
      <Placemark>
        <name>Grill Hasegawa</name>
        <styleUrl>#icon-1899-0288D1-nodesc</styleUrl>
        <Point>
          <coordinates>
            135.7615257,35.0439087,0
          </coordinates>
        </Point>
      </Placemark>
      <Placemark>
        <name><![CDATA[WIFE & HUSBAND]]></name>
        <styleUrl>#icon-1899-0288D1-nodesc</styleUrl>
        <Point>
          <coordinates>
            135.7617265,35.0433972,0
          </coordinates>
        </Point>
      </Placemark>
      <Placemark>
        <name>Ramen Touhichi</name>
        <styleUrl>#icon-1899-0288D1-nodesc</styleUrl>
        <Point>
          <coordinates>
            135.7914224,35.0500201,0
          </coordinates>
        </Point>
      </Placemark>
      <Placemark>
        <name>Men-ya Gokkei</name>
        <styleUrl>#icon-1899-0288D1-nodesc</styleUrl>
        <Point>
          <coordinates>
            135.7871338,35.0472176,0
          </coordinates>
        </Point>
      </Placemark>
      <Placemark>
        <name>Takayasu</name>
        <styleUrl>#icon-1899-0288D1-nodesc</styleUrl>
        <Point>
          <coordinates>
            135.7851299,35.0451027,0
          </coordinates>
        </Point>
      </Placemark>
      <Placemark>
        <name>Tendresse</name>
        <styleUrl>#icon-1899-0288D1-nodesc</styleUrl>
        <Point>
          <coordinates>
            135.7928952,35.0429029,0
          </coordinates>
        </Point>
      </Placemark>
      <Placemark>
        <name>Grill Ninjin</name>
        <styleUrl>#icon-1899-0288D1-nodesc</styleUrl>
        <Point>
          <coordinates>
            135.7931352,35.0418747,0
          </coordinates>
        </Point>
      </Placemark>
      <Placemark>
        <name>Akihana</name>
        <styleUrl>#icon-1899-0288D1-nodesc</styleUrl>
        <Point>
          <coordinates>
            135.7922867,35.0394834,0
          </coordinates>
        </Point>
      </Placemark>
      <Placemark>
        <name>Kitchen Gorilla</name>
        <styleUrl>#icon-1899-0288D1-nodesc</styleUrl>
        <Point>
          <coordinates>
            135.7841266,35.0344809,0
          </coordinates>
        </Point>
      </Placemark>
      <Placemark>
        <name>Pizzeria da Ciro</name>
        <styleUrl>#icon-1899-0288D1-nodesc</styleUrl>
        <Point>
          <coordinates>
            135.7905859,35.0279059,0
          </coordinates>
        </Point>
      </Placemark>
      <Placemark>
        <name>Ikazuchi Udon</name>
        <styleUrl>#icon-1899-0288D1-nodesc</styleUrl>
        <Point>
          <coordinates>
            135.7897245,35.0281407,0
          </coordinates>
        </Point>
      </Placemark>
      <Placemark>
        <name>Bistro Cerisier</name>
        <styleUrl>#icon-1899-0288D1-nodesc</styleUrl>
        <Point>
          <coordinates>
            135.7743766,35.0298012,0
          </coordinates>
        </Point>
      </Placemark>
      <Placemark>
        <name>Togenkyo</name>
        <styleUrl>#icon-1899-0288D1-nodesc</styleUrl>
        <Point>
          <coordinates>
            135.7488989,35.0303846,0
          </coordinates>
        </Point>
      </Placemark>
      <Placemark>
        <name>Kitchen Papa</name>
        <styleUrl>#icon-1899-0288D1-nodesc</styleUrl>
        <Point>
          <coordinates>
            135.7424527,35.032489,0
          </coordinates>
        </Point>
      </Placemark>
      <Placemark>
        <name>Itosen</name>
        <styleUrl>#icon-1899-0288D1-nodesc</styleUrl>
        <Point>
          <coordinates>
            135.7381148,35.0296675,0
          </coordinates>
        </Point>
      </Placemark>
      <Placemark>
        <name>Yamazaki Menjiro</name>
        <styleUrl>#icon-1899-0288D1-nodesc</styleUrl>
        <Point>
          <coordinates>
            135.7316414,35.0194889,0
          </coordinates>
        </Point>
      </Placemark>
      <Placemark>
        <name>Yakiniku Ebata</name>
        <styleUrl>#icon-1899-0288D1-nodesc</styleUrl>
        <Point>
          <coordinates>
            135.741316,35.0230931,0
          </coordinates>
        </Point>
      </Placemark>
      <Placemark>
        <name>Karasemitei</name>
        <styleUrl>#icon-1899-0288D1-nodesc</styleUrl>
        <Point>
          <coordinates>
            135.748128,35.020078,0
          </coordinates>
        </Point>
      </Placemark>
      <Placemark>
        <name>Kyoto Curry Seisakusho Karil</name>
        <styleUrl>#icon-1899-0288D1-nodesc</styleUrl>
        <Point>
          <coordinates>
            135.7566536,35.0182218,0
          </coordinates>
        </Point>
      </Placemark>
      <Placemark>
        <name>Tonkatsu Shimizu</name>
        <styleUrl>#icon-1899-0288D1-nodesc</styleUrl>
        <Point>
          <coordinates>
            135.7692518,35.0196799,0
          </coordinates>
        </Point>
      </Placemark>
      <Placemark>
        <name>Ortensia</name>
        <styleUrl>#icon-1899-0288D1-nodesc</styleUrl>
        <Point>
          <coordinates>
            135.7694615,35.0188351,0
          </coordinates>
        </Point>
      </Placemark>
      <Placemark>
        <name>Le14e</name>
        <styleUrl>#icon-1899-0288D1-nodesc</styleUrl>
        <Point>
          <coordinates>
            135.7688254,35.0171573,0
          </coordinates>
        </Point>
      </Placemark>
      <Placemark>
        <name>Grill Kodakara</name>
        <styleUrl>#icon-1899-0288D1-nodesc</styleUrl>
        <Point>
          <coordinates>
            135.7847674,35.015849,0
          </coordinates>
        </Point>
      </Placemark>
      <Placemark>
        <name>Yamamoto Menzou</name>
        <styleUrl>#icon-1899-0288D1-nodesc</styleUrl>
        <Point>
          <coordinates>
            135.7848226,35.0141863,0
          </coordinates>
        </Point>
      </Placemark>
      <Placemark>
        <name>Cucina Italiana Toudou</name>
        <styleUrl>#icon-1899-0288D1-nodesc</styleUrl>
        <Point>
          <coordinates>
            135.7609185,35.015134,0
          </coordinates>
        </Point>
      </Placemark>
      <Placemark>
        <name>Salao</name>
        <styleUrl>#icon-1899-0288D1-nodesc</styleUrl>
        <Point>
          <coordinates>
            135.764881,35.0137357,0
          </coordinates>
        </Point>
      </Placemark>
      <Placemark>
        <name>Sumiyaki Sousai Toriya Hitomi</name>
        <styleUrl>#icon-1899-0288D1-nodesc</styleUrl>
        <Point>
          <coordinates>
            135.7731236,35.0133847,0
          </coordinates>
        </Point>
      </Placemark>
      <Placemark>
        <name>Lapintaika</name>
        <styleUrl>#icon-1899-0288D1-nodesc</styleUrl>
        <Point>
          <coordinates>
            135.7782171,35.0116571,0
          </coordinates>
        </Point>
      </Placemark>
      <Placemark>
        <name>Salao</name>
        <styleUrl>#icon-1899-0288D1-nodesc</styleUrl>
        <Point>
          <coordinates>
            135.764881,35.0137357,0
          </coordinates>
        </Point>
      </Placemark>
      <Placemark>
        <name>Ippodo Tea Kyoto Main Store</name>
        <styleUrl>#icon-1899-0288D1-nodesc</styleUrl>
        <Point>
          <coordinates>
            135.7673381,35.0144485,0
          </coordinates>
        </Point>
      </Placemark>
      <Placemark>
        <name>Yakiniku Dining Kinoe</name>
        <styleUrl>#icon-1899-0288D1-nodesc</styleUrl>
        <Point>
          <coordinates>
            135.7641867,35.0123503,0
          </coordinates>
        </Point>
      </Placemark>
      <Placemark>
        <name>Jiji Baba Mokuba-tei</name>
        <styleUrl>#icon-1899-0288D1-nodesc</styleUrl>
        <Point>
          <coordinates>
            135.7601522,35.0123724,0
          </coordinates>
        </Point>
      </Placemark>
      <Placemark>
        <name>Grill French</name>
        <styleUrl>#icon-1899-0288D1-nodesc</styleUrl>
        <Point>
          <coordinates>
            135.7541126,35.0119939,0
          </coordinates>
        </Point>
      </Placemark>
      <Placemark>
        <name>fudo</name>
        <styleUrl>#icon-1899-0288D1-nodesc</styleUrl>
        <Point>
          <coordinates>
            135.7654185,35.01115,0
          </coordinates>
        </Point>
      </Placemark>
      <Placemark>
        <name>Kyoto Yakiniku (BBQ) HIRO Senbon Sanjo Location</name>
        <styleUrl>#icon-1899-0288D1-nodesc</styleUrl>
        <Point>
          <coordinates>
            135.7433816,35.0084557,0
          </coordinates>
        </Point>
      </Placemark>
      <Placemark>
        <name>Sweets Cafe KYOTO KEIZO</name>
        <styleUrl>#icon-1899-0288D1-nodesc</styleUrl>
        <Point>
          <coordinates>
            135.7498048,35.0086176,0
          </coordinates>
        </Point>
      </Placemark>
      <Placemark>
        <name>Fruit parlor Yaoiso</name>
        <styleUrl>#icon-1899-0288D1-nodesc</styleUrl>
        <Point>
          <coordinates>
            135.7500627,35.0035038,0
          </coordinates>
        </Point>
      </Placemark>
      <Placemark>
        <name>Beto Kitchen</name>
        <styleUrl>#icon-1899-0288D1-nodesc</styleUrl>
        <Point>
          <coordinates>
            135.7418174,34.9987172,0
          </coordinates>
        </Point>
      </Placemark>
      <Placemark>
        <name>Seabura no Kami</name>
        <styleUrl>#icon-1899-0288D1-nodesc</styleUrl>
        <Point>
          <coordinates>
            135.7469354,35.0004325,0
          </coordinates>
        </Point>
      </Placemark>
      <Placemark>
        <name>Maruki Bakery</name>
        <styleUrl>#icon-1899-0288D1-nodesc</styleUrl>
        <Point>
          <coordinates>
            135.7503047,34.9986932,0
          </coordinates>
        </Point>
      </Placemark>
      <Placemark>
        <name>Mugi no Yoake</name>
        <styleUrl>#icon-1899-0288D1-nodesc</styleUrl>
        <Point>
          <coordinates>
            135.7313003,34.9926711,0
          </coordinates>
        </Point>
      </Placemark>
      <Placemark>
        <name>Kobushi Ramen</name>
        <styleUrl>#icon-1899-0288D1-nodesc</styleUrl>
        <Point>
          <coordinates>
            135.7436967,34.9892975,0
          </coordinates>
        </Point>
      </Placemark>
      <Placemark>
        <name>Tonkatsu Ichiban</name>
        <styleUrl>#icon-1899-0288D1-nodesc</styleUrl>
        <Point>
          <coordinates>
            135.7500327,34.9882381,0
          </coordinates>
        </Point>
      </Placemark>
      <Placemark>
        <name>Arata</name>
        <styleUrl>#icon-1899-0288D1-nodesc</styleUrl>
        <Point>
          <coordinates>
            135.756172,34.982053,0
          </coordinates>
        </Point>
      </Placemark>
      <Placemark>
        <name>Yakiniku Hayashi - Jujo</name>
        <styleUrl>#icon-1899-0288D1-nodesc</styleUrl>
        <Point>
          <coordinates>
            135.7629555,34.9734068,0
          </coordinates>
        </Point>
      </Placemark>
      <Placemark>
        <name>Xiao Xiao</name>
        <styleUrl>#icon-1899-0288D1-nodesc</styleUrl>
        <Point>
          <coordinates>
            135.7699628,34.9863803,0
          </coordinates>
        </Point>
      </Placemark>
      <Placemark>
        <name>Honke Daiichi-Asahi - Main Shop</name>
        <styleUrl>#icon-1899-0288D1-nodesc</styleUrl>
        <Point>
          <coordinates>
            135.762502,34.986696,0
          </coordinates>
        </Point>
      </Placemark>
      <Placemark>
        <name>Shinpuku Saikan - Main Shop</name>
        <styleUrl>#icon-1899-0288D1-nodesc</styleUrl>
        <Point>
          <coordinates>
            135.7624974,34.9867471,0
          </coordinates>
        </Point>
      </Placemark>
      <Placemark>
        <name>Yamamoto Mambo</name>
        <styleUrl>#icon-1899-0288D1-nodesc</styleUrl>
        <Point>
          <coordinates>
            135.762843,34.9879349,0
          </coordinates>
        </Point>
      </Placemark>
      <Placemark>
        <name>trattoria sette</name>
        <styleUrl>#icon-1899-0288D1-nodesc</styleUrl>
        <Point>
          <coordinates>
            135.7735268,34.9888884,0
          </coordinates>
        </Point>
      </Placemark>
      <Placemark>
        <name>cafe 33</name>
        <styleUrl>#icon-1899-0288D1-nodesc</styleUrl>
        <Point>
          <coordinates>
            135.7736595,34.9887907,0
          </coordinates>
        </Point>
      </Placemark>
      <Placemark>
        <name>IL PAPPALARDO</name>
        <styleUrl>#icon-1899-0288D1-nodesc</styleUrl>
        <Point>
          <coordinates>
            135.7753428,34.9894533,0
          </coordinates>
        </Point>
      </Placemark>
      <Placemark>
        <name>Shibosai Sumiyoshi</name>
        <styleUrl>#icon-1899-0288D1-nodesc</styleUrl>
        <Point>
          <coordinates>
            135.7747657,34.9922542,0
          </coordinates>
        </Point>
      </Placemark>
      <Placemark>
        <name>Walden Woods Kyoto</name>
        <styleUrl>#icon-1899-0288D1-nodesc</styleUrl>
        <Point>
          <coordinates>
            135.7631616,34.9933458,0
          </coordinates>
        </Point>
      </Placemark>
      <Placemark>
        <name>Asperge Blanche</name>
        <styleUrl>#icon-1899-0288D1-nodesc</styleUrl>
        <Point>
          <coordinates>
            135.7590508,34.9955422,0
          </coordinates>
        </Point>
      </Placemark>
      <Placemark>
        <name>Muromachi Kaji</name>
        <styleUrl>#icon-1899-0288D1-nodesc</styleUrl>
        <Point>
          <coordinates>
            135.7577714,34.998827,0
          </coordinates>
        </Point>
      </Placemark>
      <Placemark>
        <name>Maccha House</name>
        <styleUrl>#icon-1899-0288D1-nodesc</styleUrl>
        <Point>
          <coordinates>
            135.7811203,34.997465,0
          </coordinates>
        </Point>
      </Placemark>
      <Placemark>
        <name>Mishina</name>
        <styleUrl>#icon-1899-0288D1-nodesc</styleUrl>
        <Point>
          <coordinates>
            135.7806812,34.99822,0
          </coordinates>
        </Point>
      </Placemark>
      <Placemark>
        <name>% ARABICA Kyoto Higashiyama</name>
        <styleUrl>#icon-1899-0288D1-nodesc</styleUrl>
        <Point>
          <coordinates>
            135.778294,34.9986354,0
          </coordinates>
        </Point>
      </Placemark>
      <Placemark>
        <name>Canton Shunsai Ikki</name>
        <styleUrl>#icon-1899-0288D1-nodesc</styleUrl>
        <Point>
          <coordinates>
            135.7779539,35.0009282,0
          </coordinates>
        </Point>
      </Placemark>
      <Placemark>
        <name>Gion Koishi</name>
        <styleUrl>#icon-1899-0288D1-nodesc</styleUrl>
        <Point>
          <coordinates>
            135.7767147,35.0039348,0
          </coordinates>
        </Point>
      </Placemark>
      <Placemark>
        <name>Junidan-ya</name>
        <styleUrl>#icon-1899-0288D1-nodesc</styleUrl>
        <Point>
          <coordinates>
            135.775346,35.002993,0
          </coordinates>
        </Point>
      </Placemark>
      <Placemark>
        <name>Gion Kinana</name>
        <styleUrl>#icon-1899-0288D1-nodesc</styleUrl>
        <Point>
          <coordinates>
            135.7742848,35.0023284,0
          </coordinates>
        </Point>
      </Placemark>
      <Placemark>
        <name>Saryo Tsujiri Tea House, Gion Main Store</name>
        <styleUrl>#icon-1899-0288D1-nodesc</styleUrl>
        <Point>
          <coordinates>
            135.774477,35.003665,0
          </coordinates>
        </Point>
      </Placemark>
      <Placemark>
        <name>Takocho</name>
        <styleUrl>#icon-1899-0288D1-nodesc</styleUrl>
        <Point>
          <coordinates>
            135.771618,35.002023,0
          </coordinates>
        </Point>
      </Placemark>
      <Placemark>
        <name>Salon de thé François</name>
        <styleUrl>#icon-1899-0288D1-nodesc</styleUrl>
        <Point>
          <coordinates>
            135.7702134,35.0032923,0
          </coordinates>
        </Point>
      </Placemark>
      <Placemark>
        <name>Shokudo Ogawa</name>
        <styleUrl>#icon-1899-0288D1-nodesc</styleUrl>
        <Point>
          <coordinates>
            135.7699891,35.0027376,0
          </coordinates>
        </Point>
      </Placemark>
      <Placemark>
        <name>Bocca del Vino</name>
        <styleUrl>#icon-1899-0288D1-nodesc</styleUrl>
        <Point>
          <coordinates>
            135.7700183,35.0018909,0
          </coordinates>
        </Point>
      </Placemark>
      <Placemark>
        <name>Chinese Noodles ROKU</name>
        <styleUrl>#icon-1899-0288D1-nodesc</styleUrl>
        <Point>
          <coordinates>
            135.7688239,35.0026011,0
          </coordinates>
        </Point>
      </Placemark>
      <Placemark>
        <name>Yukou</name>
        <styleUrl>#icon-1899-0288D1-nodesc</styleUrl>
        <Point>
          <coordinates>
            135.7690645,35.0023297,0
          </coordinates>
        </Point>
      </Placemark>
      <Placemark>
        <name>Men-ya Inoichi</name>
        <styleUrl>#icon-1899-0288D1-nodesc</styleUrl>
        <Point>
          <coordinates>
            135.7669639,35.0013284,0
          </coordinates>
        </Point>
      </Placemark>
      <Placemark>
        <name>Izugen</name>
        <styleUrl>#icon-1899-0288D1-nodesc</styleUrl>
        <Point>
          <coordinates>
            135.7626342,35.0020724,0
          </coordinates>
        </Point>
      </Placemark>
      <Placemark>
        <name>Washoku Haru</name>
        <styleUrl>#icon-1899-0288D1-nodesc</styleUrl>
        <Point>
          <coordinates>
            135.7625297,35.0024859,0
          </coordinates>
        </Point>
      </Placemark>
      <Placemark>
        <name>KARA-KUSA curry</name>
        <styleUrl>#icon-1899-0288D1-nodesc</styleUrl>
        <Point>
          <coordinates>
            135.7615118,35.0024301,0
          </coordinates>
        </Point>
      </Placemark>
      <Placemark>
        <name>Restaurant Aki</name>
        <styleUrl>#icon-1899-0288D1-nodesc</styleUrl>
        <Point>
          <coordinates>
            135.757087,35.0038347,0
          </coordinates>
        </Point>
      </Placemark>
      <Placemark>
        <name>株式会社ムレスナティーハウス京都</name>
        <styleUrl>#icon-1899-0288D1-nodesc</styleUrl>
        <Point>
          <coordinates>
            135.7590484,35.0050073,0
          </coordinates>
        </Point>
      </Placemark>
      <Placemark>
        <name>Sushizen</name>
        <styleUrl>#icon-1899-0288D1-nodesc</styleUrl>
        <Point>
          <coordinates>
            135.7569023,35.0086974,0
          </coordinates>
        </Point>
      </Placemark>
      <Placemark>
        <name>NISHITOMIYA</name>
        <styleUrl>#icon-1899-0288D1-nodesc</styleUrl>
        <Point>
          <coordinates>
            135.7818339,35.0090147,0
          </coordinates>
        </Point>
      </Placemark>
      <Placemark>
        <name>Marushin Hanten</name>
        <styleUrl>#icon-1899-0288D1-nodesc</styleUrl>
        <Point>
          <coordinates>
            135.777948,35.008981,0
          </coordinates>
        </Point>
      </Placemark>
      <Placemark>
        <name>Gion Kappa Restaurant</name>
        <styleUrl>#icon-1899-0288D1-nodesc</styleUrl>
        <Point>
          <coordinates>
            135.7730631,35.0050326,0
          </coordinates>
        </Point>
      </Placemark>
      <Placemark>
        <name>Panel Cafe Kyoto</name>
        <styleUrl>#icon-1899-0288D1-nodesc</styleUrl>
        <Point>
          <coordinates>
            135.772634,35.0051395,0
          </coordinates>
        </Point>
      </Placemark>
      <Placemark>
        <name>enen</name>
        <styleUrl>#icon-1899-0288D1-nodesc</styleUrl>
        <Point>
          <coordinates>
            135.77104,35.0051649,0
          </coordinates>
        </Point>
      </Placemark>
      <Placemark>
        <name>Mendokoro Janomeya</name>
        <styleUrl>#icon-1899-0288D1-nodesc</styleUrl>
        <Point>
          <coordinates>
            135.7678897,35.004148,0
          </coordinates>
        </Point>
      </Placemark>
      <Placemark>
        <name>Ryoushi Goya</name>
        <styleUrl>#icon-1899-0288D1-nodesc</styleUrl>
        <Point>
          <coordinates>
            135.7660752,35.0051584,0
          </coordinates>
        </Point>
      </Placemark>
      <Placemark>
        <name>MOTOI Gyoza</name>
        <styleUrl>#icon-1899-0288D1-nodesc</styleUrl>
        <Point>
          <coordinates>
            135.7641669,35.0044131,0
          </coordinates>
        </Point>
      </Placemark>
      <Placemark>
        <name>Yakiniku Hiro Shoten Karasuma Nishiki</name>
        <styleUrl>#icon-1899-0288D1-nodesc</styleUrl>
        <Point>
          <coordinates>
            135.7605616,35.005052,0
          </coordinates>
        </Point>
      </Placemark>
      <Placemark>
        <name>Pizzeria Marita</name>
        <styleUrl>#icon-1899-0288D1-nodesc</styleUrl>
        <Point>
          <coordinates>
            135.7631869,35.0059846,0
          </coordinates>
        </Point>
      </Placemark>
      <Placemark>
        <name>Pontocho Masuda</name>
        <styleUrl>#icon-1899-0288D1-nodesc</styleUrl>
        <Point>
          <coordinates>
            135.771063,35.0057928,0
          </coordinates>
        </Point>
      </Placemark>
      <Placemark>
        <name><![CDATA[mumokuteki cafe&foods Kyoto]]></name>
        <styleUrl>#icon-1899-0288D1-nodesc</styleUrl>
        <Point>
          <coordinates>
            135.766561,35.0065569,0
          </coordinates>
        </Point>
      </Placemark>
      <Placemark>
        <name><![CDATA[Les champs d'or]]></name>
        <styleUrl>#icon-1899-0288D1-nodesc</styleUrl>
        <Point>
          <coordinates>
            135.7637424,35.0065566,0
          </coordinates>
        </Point>
      </Placemark>
      <Placemark>
        <name>RAMEN MURAJI</name>
        <styleUrl>#icon-1899-0288D1-nodesc</styleUrl>
        <Point>
          <coordinates>
            135.7639026,35.0071034,0
          </coordinates>
        </Point>
      </Placemark>
      <Placemark>
        <name>Bonjour</name>
        <styleUrl>#icon-1899-0288D1-nodesc</styleUrl>
        <Point>
          <coordinates>
            135.7609013,35.007218,0
          </coordinates>
        </Point>
      </Placemark>
      <Placemark>
        <name>Savory</name>
        <styleUrl>#icon-1899-0288D1-nodesc</styleUrl>
        <Point>
          <coordinates>
            135.7612039,35.0077402,0
          </coordinates>
        </Point>
      </Placemark>
      <Placemark>
        <name>Pâtisserie S Salon</name>
        <styleUrl>#icon-1899-0288D1-nodesc</styleUrl>
        <Point>
          <coordinates>
            135.7648158,35.0076006,0
          </coordinates>
        </Point>
      </Placemark>
      <Placemark>
        <name>Kichi Kichi Omurice</name>
        <styleUrl>#icon-1899-0288D1-nodesc</styleUrl>
        <Point>
          <coordinates>
            135.7708108,35.0072788,0
          </coordinates>
        </Point>
      </Placemark>
      <Placemark>
        <name>Kyo-no-Yakiniku-Dokoro Hiro Pontocho</name>
        <styleUrl>#icon-1899-0288D1-nodesc</styleUrl>
        <Point>
          <coordinates>
            135.7707225,35.0081003,0
          </coordinates>
        </Point>
      </Placemark>
      <Placemark>
        <name>Bar MICHIya</name>
        <styleUrl>#icon-1899-0288D1-nodesc</styleUrl>
        <Point>
          <coordinates>
            135.77053,35.009184,0
          </coordinates>
        </Point>
      </Placemark>
      <Placemark>
        <name>Smart Coffee</name>
        <styleUrl>#icon-1899-0288D1-nodesc</styleUrl>
        <Point>
          <coordinates>
            135.7670815,35.0094531,0
          </coordinates>
        </Point>
      </Placemark>
      <Placemark>
        <name>Mishima-Tei (Original)</name>
        <styleUrl>#icon-1899-0288D1-nodesc</styleUrl>
        <Point>
          <coordinates>
            135.7670506,35.0085412,0
          </coordinates>
        </Point>
      </Placemark>
      <Placemark>
        <name>Kuishinbo Yamanaka</name>
        <styleUrl>#icon-1899-0288D1-nodesc</styleUrl>
        <Point>
          <coordinates>
            135.6934732,34.9793729,0
          </coordinates>
        </Point>
      </Placemark>
      <Placemark>
        <name>Takara Sushi</name>
        <styleUrl>#icon-1899-0288D1-nodesc</styleUrl>
        <Point>
          <coordinates>
            135.6809506,35.0091449,0
          </coordinates>
        </Point>
      </Placemark>
      <Placemark>
        <name>MUKU</name>
        <styleUrl>#icon-1899-0288D1-nodesc</styleUrl>
        <Point>
          <coordinates>
            135.6780228,35.0106703,0
          </coordinates>
        </Point>
      </Placemark>
      <Placemark>
        <name>Cafe Hassui</name>
        <styleUrl>#icon-1899-0288D1-nodesc</styleUrl>
        <Point>
          <coordinates>
            135.6732767,35.0137742,0
          </coordinates>
        </Point>
      </Placemark>
      <Placemark>
        <name>Hatoya Ryoyousha Honten</name>
        <styleUrl>#icon-1899-0288D1-nodesc</styleUrl>
        <Point>
          <coordinates>
            135.6888369,35.0166748,0
          </coordinates>
        </Point>
      </Placemark>
      <Placemark>
        <name>Steak Otsuka</name>
        <styleUrl>#icon-1899-0288D1-nodesc</styleUrl>
        <Point>
          <coordinates>
            135.6804664,35.020412,0
          </coordinates>
        </Point>
      </Placemark>
      <Placemark>
        <name>Tamakitei</name>
        <styleUrl>#icon-1899-0288D1-nodesc</styleUrl>
        <Point>
          <coordinates>
            135.8034225,34.9101064,0
          </coordinates>
        </Point>
      </Placemark>
      <Placemark>
        <name>Chez Hagata</name>
        <styleUrl>#icon-1899-0288D1-nodesc</styleUrl>
        <Point>
          <coordinates>
            135.8085295,34.8991535,0
          </coordinates>
        </Point>
      </Placemark>
      <Placemark>
        <name>Itoh Kyuemon - Uji Head Shop / Sabo</name>
        <styleUrl>#icon-1899-0288D1-nodesc</styleUrl>
        <Point>
          <coordinates>
            135.8087628,34.8966402,0
          </coordinates>
        </Point>
      </Placemark>
      <Placemark>
        <name>Tsuen Main Branch</name>
        <styleUrl>#icon-1899-0288D1-nodesc</styleUrl>
        <Point>
          <coordinates>
            135.8072759,34.89329,0
          </coordinates>
        </Point>
      </Placemark>
      <Placemark>
        <name>Surugaya Keihan Uji Station</name>
        <styleUrl>#icon-1899-0288D1-nodesc</styleUrl>
        <Point>
          <coordinates>
            135.8074116,34.8933821,0
          </coordinates>
        </Point>
      </Placemark>
      <Placemark>
        <name>Fukujuen Uji (Uji Tea Factory)</name>
        <styleUrl>#icon-1899-0288D1-nodesc</styleUrl>
        <Point>
          <coordinates>
            135.8105501,34.8901729,0
          </coordinates>
        </Point>
      </Placemark>
      <Placemark>
        <name>Mogmog Bakery</name>
        <styleUrl>#icon-1899-0288D1-nodesc</styleUrl>
        <Point>
          <coordinates>
            135.8034954,34.8906239,0
          </coordinates>
        </Point>
      </Placemark>
      <Placemark>
        <name>Tsujirihei Honten - Kyoto Uji Main Shop</name>
        <styleUrl>#icon-1899-0288D1-nodesc</styleUrl>
        <Point>
          <coordinates>
            135.7976721,34.8894866,0
          </coordinates>
        </Point>
      </Placemark>
      <Placemark>
        <name>Seikoudoku</name>
        <styleUrl>#icon-1899-0288D1-nodesc</styleUrl>
        <Point>
          <coordinates>
            135.7949392,34.8858348,0
          </coordinates>
        </Point>
      </Placemark>
    </Folder>
    <Folder>
      <name>Kyoto Attractions</name>
      <Placemark>
        <name>teamLab Biovortex Kyoto</name>
        <styleUrl>#icon-1899-0288D1-nodesc</styleUrl>
        <Point>
          <coordinates>
            135.764893,34.9837409,0
          </coordinates>
        </Point>
      </Placemark>
      <Placemark>
        <name>Tōfuku-ji Temple</name>
        <styleUrl>#icon-1899-0288D1-nodesc</styleUrl>
        <Point>
          <coordinates>
            135.7737627,34.976025,0
          </coordinates>
        </Point>
      </Placemark>
      <Placemark>
        <name>Fushimi Inari Taisha</name>
        <styleUrl>#icon-1899-0288D1-nodesc</styleUrl>
        <Point>
          <coordinates>
            135.7791876,34.9676945,0
          </coordinates>
        </Point>
      </Placemark>
      <Placemark>
        <name>To-ji Temple</name>
        <styleUrl>#icon-1899-0288D1-nodesc</styleUrl>
        <Point>
          <coordinates>
            135.7476935,34.9803395,0
          </coordinates>
        </Point>
      </Placemark>
      <Placemark>
        <name>Kiyomizu-dera</name>
        <styleUrl>#icon-1899-0288D1-nodesc</styleUrl>
        <Point>
          <coordinates>
            135.784661,34.9946662,0
          </coordinates>
        </Point>
      </Placemark>
      <Placemark>
        <name>Shōgunzuka Mound</name>
        <styleUrl>#icon-1899-0288D1-nodesc</styleUrl>
        <Point>
          <coordinates>
            135.7869601,35.002102,0
          </coordinates>
        </Point>
      </Placemark>
      <Placemark>
        <name>Kodaiji Temple</name>
        <styleUrl>#icon-1899-0288D1-nodesc</styleUrl>
        <Point>
          <coordinates>
            135.7812718,35.0007687,0
          </coordinates>
        </Point>
      </Placemark>
      <Placemark>
        <name>Yasaka Shrine</name>
        <styleUrl>#icon-1899-0288D1-nodesc</styleUrl>
        <Point>
          <coordinates>
            135.7785534,35.0036559,0
          </coordinates>
        </Point>
      </Placemark>
      <Placemark>
        <name>Nanzen-ji</name>
        <styleUrl>#icon-1899-0288D1-nodesc</styleUrl>
        <Point>
          <coordinates>
            135.7944841,35.0114138,0
          </coordinates>
        </Point>
      </Placemark>
      <Placemark>
        <name>Kyoto City KYOCERA Museum of Art</name>
        <styleUrl>#icon-1899-0288D1-nodesc</styleUrl>
        <Point>
          <coordinates>
            135.7835544,35.0128613,0
          </coordinates>
        </Point>
      </Placemark>
      <Placemark>
        <name>Heian Jingu Shrine</name>
        <styleUrl>#icon-1899-0288D1-nodesc</styleUrl>
        <Point>
          <coordinates>
            135.7824263,35.0159823,0
          </coordinates>
        </Point>
      </Placemark>
      <Placemark>
        <name>Eikandō Temple</name>
        <styleUrl>#icon-1899-0288D1-nodesc</styleUrl>
        <Point>
          <coordinates>
            135.7941588,35.0148543,0
          </coordinates>
        </Point>
      </Placemark>
      <Placemark>
        <name>Ginkaku-ji</name>
        <styleUrl>#icon-1899-0288D1-nodesc</styleUrl>
        <Point>
          <coordinates>
            135.7982058,35.0270213,0
          </coordinates>
        </Point>
      </Placemark>
      <Placemark>
        <name>Ninna-ji Temple</name>
        <styleUrl>#icon-1899-0288D1-nodesc</styleUrl>
        <Point>
          <coordinates>
            135.7138198,35.0310937,0
          </coordinates>
        </Point>
      </Placemark>
      <Placemark>
        <name>Ryōan-ji</name>
        <styleUrl>#icon-1899-0288D1-nodesc</styleUrl>
        <Point>
          <coordinates>
            135.7182634,35.0344943,0
          </coordinates>
        </Point>
      </Placemark>
      <Placemark>
        <name>Kinkaku-ji</name>
        <styleUrl>#icon-1899-0288D1-nodesc</styleUrl>
        <Point>
          <coordinates>
            135.7292431,35.03937,0
          </coordinates>
        </Point>
      </Placemark>
      <Placemark>
        <name>Toei Kyoto Studio Park</name>
        <styleUrl>#icon-1899-0288D1-nodesc</styleUrl>
        <Point>
          <coordinates>
            135.7080227,35.0164521,0
          </coordinates>
        </Point>
      </Placemark>
      <Placemark>
        <name>Tenryu-ji</name>
        <styleUrl>#icon-1899-0288D1-nodesc</styleUrl>
        <Point>
          <coordinates>
            135.6737654,35.0158379,0
          </coordinates>
        </Point>
      </Placemark>
      <Placemark>
        <name>Arashiyama Bamboo Forest</name>
        <styleUrl>#icon-1899-0288D1-nodesc</styleUrl>
        <Point>
          <coordinates>
            135.6713013,35.0168187,0
          </coordinates>
        </Point>
      </Placemark>
      <Placemark>
        <name>Manpuku-ji</name>
        <styleUrl>#icon-1899-0288D1-nodesc</styleUrl>
        <Point>
          <coordinates>
            135.8058509,34.9137675,0
          </coordinates>
        </Point>
      </Placemark>
      <Placemark>
        <name>Ujikami Shrine</name>
        <styleUrl>#icon-1899-0288D1-nodesc</styleUrl>
        <Point>
          <coordinates>
            135.8112954,34.8919274,0
          </coordinates>
        </Point>
      </Placemark>
      <Placemark>
        <name>Uji Park</name>
        <styleUrl>#icon-1899-0288D1-nodesc</styleUrl>
        <Point>
          <coordinates>
            135.8094713,34.8892094,0
          </coordinates>
        </Point>
      </Placemark>
      <Placemark>
        <name>Byodo-in Temple</name>
        <styleUrl>#icon-1899-0288D1-nodesc</styleUrl>
        <Point>
          <coordinates>
            135.8076783,34.8892908,0
          </coordinates>
        </Point>
      </Placemark>
      <Placemark>
        <name>Nintendo Museum</name>
        <styleUrl>#icon-1899-0288D1-nodesc</styleUrl>
        <Point>
          <coordinates>
            135.784166,34.8927989,0
          </coordinates>
        </Point>
      </Placemark>
      <Placemark>
        <name>Nijō Castle</name>
        <styleUrl>#icon-1899-0288D1-nodesc</styleUrl>
        <Point>
          <coordinates>
            135.7484258,35.0140379,0
          </coordinates>
        </Point>
      </Placemark>
      <Placemark>
        <name>Kyoto Imperial Palace</name>
        <styleUrl>#icon-1899-0288D1-nodesc</styleUrl>
        <Point>
          <coordinates>
            135.7621436,35.0240977,0
          </coordinates>
        </Point>
      </Placemark>
    </Folder>
    <Folder>
      <name>Kyoto Shopping</name>
      <Placemark>
        <name>JR Kyoto Isetan</name>
        <styleUrl>#icon-1899-0288D1-nodesc</styleUrl>
        <Point>
          <coordinates>
            135.7569987,34.9858646,0
          </coordinates>
        </Point>
      </Placemark>
      <Placemark>
        <name>kindal kyoto shijo second hand store</name>
        <styleUrl>#icon-1899-0288D1-nodesc</styleUrl>
        <Point>
          <coordinates>
            135.7669993,35.0016865,0
          </coordinates>
        </Point>
      </Placemark>
      <Placemark>
        <name>Ragtag Kyoto</name>
        <styleUrl>#icon-1899-0288D1-nodesc</styleUrl>
        <Point>
          <coordinates>
            135.7666344,35.0038546,0
          </coordinates>
        </Point>
      </Placemark>
      <Placemark>
        <name>BOOKOFF PLUS Kawaramachi OPA Store</name>
        <styleUrl>#icon-1899-0288D1-nodesc</styleUrl>
        <Point>
          <coordinates>
            135.7689382,35.0045068,0
          </coordinates>
        </Point>
      </Placemark>
      <Placemark>
        <name>F.I.L. KYOTO</name>
        <styleUrl>#icon-1899-0288D1-nodesc</styleUrl>
        <Point>
          <coordinates>
            135.7694369,35.0048753,0
          </coordinates>
        </Point>
      </Placemark>
      <Placemark>
        <name>BRAND OFF</name>
        <styleUrl>#icon-1899-0288D1-nodesc</styleUrl>
        <Point>
          <coordinates>
            135.7694078,35.00502,0
          </coordinates>
        </Point>
      </Placemark>
      <Placemark>
        <name>LE LABO CAFE KYOTO MACHIYA ル ラボ カフェ 京都町家</name>
        <styleUrl>#icon-1899-0288D1-nodesc</styleUrl>
        <Point>
          <coordinates>
            135.7707261,35.0054242,0
          </coordinates>
        </Point>
      </Placemark>
      <Placemark>
        <name>Kyoto BAL</name>
        <styleUrl>#icon-1899-0288D1-nodesc</styleUrl>
        <Point>
          <coordinates>
            135.7695294,35.0069369,0
          </coordinates>
        </Point>
      </Placemark>
      <Placemark>
        <name><![CDATA[ARTS&SCIENCE KYOTO]]></name>
        <styleUrl>#icon-1899-0288D1-nodesc</styleUrl>
        <Point>
          <coordinates>
            135.7700433,35.0132947,0
          </coordinates>
        </Point>
      </Placemark>
      <Placemark>
        <name>BARD</name>
        <styleUrl>#icon-1899-0288D1-nodesc</styleUrl>
        <Point>
          <coordinates>
            135.7657928,35.0097376,0
          </coordinates>
        </Point>
      </Placemark>
      <Placemark>
        <name>Furugiya KINJI Kyototen</name>
        <styleUrl>#icon-1899-0288D1-nodesc</styleUrl>
        <Point>
          <coordinates>
            135.7660181,35.0087106,0
          </coordinates>
        </Point>
      </Placemark>
      <Placemark>
        <name>Vintage clothing store JAM Kyoto shop</name>
        <styleUrl>#icon-1899-0288D1-nodesc</styleUrl>
        <Point>
          <coordinates>
            135.766334,35.0085036,0
          </coordinates>
        </Point>
      </Placemark>
      <Placemark>
        <name>ISSEY MIYAKE KYOTO</name>
        <styleUrl>#icon-1899-0288D1-nodesc</styleUrl>
        <Point>
          <coordinates>
            135.763915,35.0079968,0
          </coordinates>
        </Point>
      </Placemark>
      <Placemark>
        <name>Hakuchikudo</name>
        <styleUrl>#icon-1899-0288D1-nodesc</styleUrl>
        <Point>
          <coordinates>
            135.7655867,35.0076363,0
          </coordinates>
        </Point>
      </Placemark>
      <Placemark>
        <name>Graphpaper kyoto</name>
        <styleUrl>#icon-1899-0288D1-nodesc</styleUrl>
        <Point>
          <coordinates>
            135.7652452,35.007417,0
          </coordinates>
        </Point>
      </Placemark>
      <Placemark>
        <name>UNDERCOVER KYOTO</name>
        <styleUrl>#icon-1899-0288D1-nodesc</styleUrl>
        <Point>
          <coordinates>
            135.7616133,35.0072763,0
          </coordinates>
        </Point>
      </Placemark>
      <Placemark>
        <name>BEAMS JAPAN KYOTO</name>
        <styleUrl>#icon-1899-0288D1-nodesc</styleUrl>
        <Point>
          <coordinates>
            135.7599054,35.0097264,0
          </coordinates>
        </Point>
      </Placemark>
      <Placemark>
        <name>Pilgrim Surf+Supply KYOTO</name>
        <styleUrl>#icon-1899-0288D1-nodesc</styleUrl>
        <Point>
          <coordinates>
            135.7597971,35.0097812,0
          </coordinates>
        </Point>
      </Placemark>
      <Placemark>
        <name>LE LABO Kyoto Shinpuhkan</name>
        <styleUrl>#icon-1899-0288D1-nodesc</styleUrl>
        <Point>
          <coordinates>
            135.7598305,35.0096645,0
          </coordinates>
        </Point>
      </Placemark>
      <Placemark>
        <name>Vous êtes different</name>
        <styleUrl>#icon-1899-0288D1-nodesc</styleUrl>
        <Point>
          <coordinates>
            135.7612183,35.0054349,0
          </coordinates>
        </Point>
      </Placemark>
      <Placemark>
        <name>PORTER CLASSIC KYOTO</name>
        <styleUrl>#icon-1899-0288D1-nodesc</styleUrl>
        <Point>
          <coordinates>
            135.7642788,35.0053994,0
          </coordinates>
        </Point>
      </Placemark>
      <Placemark>
        <name>LOFTMAN 1981</name>
        <styleUrl>#icon-1899-0288D1-nodesc</styleUrl>
        <Point>
          <coordinates>
            135.7667839,35.0053053,0
          </coordinates>
        </Point>
      </Placemark>
      <Placemark>
        <name>Ｌａｇｏｏｎ</name>
        <styleUrl>#icon-1899-0288D1-nodesc</styleUrl>
        <Point>
          <coordinates>
            135.7679467,35.0057914,0
          </coordinates>
        </Point>
      </Placemark>
      <Placemark>
        <name>Animate Kyoto</name>
        <styleUrl>#icon-1899-0288D1-nodesc</styleUrl>
        <Point>
          <coordinates>
            135.767588,35.005362,0
          </coordinates>
        </Point>
      </Placemark>
      <Placemark>
        <name>Kapital</name>
        <styleUrl>#icon-1899-0288D1-nodesc</styleUrl>
        <Point>
          <coordinates>
            135.7663151,35.0066339,0
          </coordinates>
        </Point>
      </Placemark>
      <Placemark>
        <name>Kyo no Furusato</name>
        <styleUrl>#icon-1899-0288D1-nodesc</styleUrl>
        <Point>
          <coordinates>
            135.7671915,35.0070738,0
          </coordinates>
        </Point>
      </Placemark>
      <Placemark>
        <name>Echigoya</name>
        <styleUrl>#icon-1899-0288D1-nodesc</styleUrl>
        <Point>
          <coordinates>
            135.767143,35.0056297,0
          </coordinates>
        </Point>
      </Placemark>
    </Folder>
  </Document>
</kml>
