<?xml version="1.0" encoding="UTF-8"?>
<kml xmlns="http://www.opengis.net/kml/2.2">
  <Document>
    <name>Tokyo Other Area Restaurants</name>
    <description/>
    <Style id="icon-1899-0288D1-nodesc-normal">
      <IconStyle>
        <color>ffd18802</color>
        <scale>1</scale>
        <Icon>
          <href>https://www.gstatic.com/mapspro/images/stock/503-wht-blank_maps.png</href>
        </Icon>
        <hotSpot x="32" xunits="pixels" y="64" yunits="insetPixels"/>
      </IconStyle>
      <LabelStyle>
        <scale>0</scale>
      </LabelStyle>
      <BalloonStyle>
        <text><![CDATA[<h3>$[name]</h3>]]></text>
      </BalloonStyle>
    </Style>
    <Style id="icon-1899-0288D1-nodesc-highlight">
      <IconStyle>
        <color>ffd18802</color>
        <scale>1</scale>
        <Icon>
          <href>https://www.gstatic.com/mapspro/images/stock/503-wht-blank_maps.png</href>
        </Icon>
        <hotSpot x="32" xunits="pixels" y="64" yunits="insetPixels"/>
      </IconStyle>
      <LabelStyle>
        <scale>1</scale>
      </LabelStyle>
      <BalloonStyle>
        <text><![CDATA[<h3>$[name]</h3>]]></text>
      </BalloonStyle>
    </Style>
    <StyleMap id="icon-1899-0288D1-nodesc">
      <Pair>
        <key>normal</key>
        <styleUrl>#icon-1899-0288D1-nodesc-normal</styleUrl>
      </Pair>
      <Pair>
        <key>highlight</key>
        <styleUrl>#icon-1899-0288D1-nodesc-highlight</styleUrl>
      </Pair>
    </StyleMap>
    <Folder>
      <name>Untitled layer</name>
      <Placemark>
        <name>Tsukemen Miyamoto</name>
        <styleUrl>#icon-1899-0288D1-nodesc</styleUrl>
        <Point>
          <coordinates>
            139.7134278,35.5642274,0
          </coordinates>
        </Point>
      </Placemark>
      <Placemark>
        <name>Shinjiko Shijimi Chūkasoba Kohaku</name>
        <styleUrl>#icon-1899-0288D1-nodesc</styleUrl>
        <Point>
          <coordinates>
            139.7111871,35.5512472,0
          </coordinates>
        </Point>
      </Placemark>
      <Placemark>
        <name>Sato</name>
        <styleUrl>#icon-1899-0288D1-nodesc</styleUrl>
        <Point>
          <coordinates>
            139.7459496,35.5486045,0
          </coordinates>
        </Point>
      </Placemark>
      <Placemark>
        <name>Charume</name>
        <styleUrl>#icon-1899-0288D1-nodesc</styleUrl>
        <Point>
          <coordinates>
            139.7320653,35.5514517,0
          </coordinates>
        </Point>
      </Placemark>
      <Placemark>
        <name>Tonkatsu Maruichi</name>
        <styleUrl>#icon-1899-0288D1-nodesc</styleUrl>
        <Point>
          <coordinates>
            139.7202497,35.5615402,0
          </coordinates>
        </Point>
      </Placemark>
      <Placemark>
        <name>Curry Ippekoppe</name>
        <styleUrl>#icon-1899-0288D1-nodesc</styleUrl>
        <Point>
          <coordinates>
            139.7170176,35.5604554,0
          </coordinates>
        </Point>
      </Placemark>
      <Placemark>
        <name>Ramen Hiiki</name>
        <styleUrl>#icon-1899-0288D1-nodesc</styleUrl>
        <Point>
          <coordinates>
            139.7173084,35.564036,0
          </coordinates>
        </Point>
      </Placemark>
      <Placemark>
        <name>Hatsunezushi</name>
        <styleUrl>#icon-1899-0288D1-nodesc</styleUrl>
        <Point>
          <coordinates>
            139.7145459,35.565543,0
          </coordinates>
        </Point>
      </Placemark>
      <Placemark>
        <name>Tonkatsu Enraku</name>
        <styleUrl>#icon-1899-0288D1-nodesc</styleUrl>
        <Point>
          <coordinates>
            139.7041862,35.572938,0
          </coordinates>
        </Point>
      </Placemark>
      <Placemark>
        <name>Natsuya no Chuuka Soba</name>
        <styleUrl>#icon-1899-0288D1-nodesc</styleUrl>
        <Point>
          <coordinates>
            139.6838916,35.5714055,0
          </coordinates>
        </Point>
      </Placemark>
      <Placemark>
        <name>Ramen Hazuki</name>
        <styleUrl>#icon-1899-0288D1-nodesc</styleUrl>
        <Point>
          <coordinates>
            139.678973,35.5901361,0
          </coordinates>
        </Point>
      </Placemark>
      <Placemark>
        <name>Homemade Ramen 麦苗</name>
        <styleUrl>#icon-1899-0288D1-nodesc</styleUrl>
        <Point>
          <coordinates>
            139.7328034,35.5907765,0
          </coordinates>
        </Point>
      </Placemark>
      <Placemark>
        <name>Makimura</name>
        <styleUrl>#icon-1899-0288D1-nodesc</styleUrl>
        <Point>
          <coordinates>
            139.7354263,35.5908393,0
          </coordinates>
        </Point>
      </Placemark>
      <Placemark>
        <name>Poisson Rouge</name>
        <styleUrl>#icon-1899-0288D1-nodesc</styleUrl>
        <Point>
          <coordinates>
            139.7337361,35.6044804,0
          </coordinates>
        </Point>
      </Placemark>
      <Placemark>
        <name>Manraien</name>
        <styleUrl>#icon-1899-0288D1-nodesc</styleUrl>
        <Point>
          <coordinates>
            139.736958,35.6072599,0
          </coordinates>
        </Point>
      </Placemark>
      <Placemark>
        <name>Chūkasoba Tagano</name>
        <styleUrl>#icon-1899-0288D1-nodesc</styleUrl>
        <Point>
          <coordinates>
            139.7115588,35.6097159,0
          </coordinates>
        </Point>
      </Placemark>
      <Placemark>
        <name>Parlour Laurel</name>
        <styleUrl>#icon-1899-0288D1-nodesc</styleUrl>
        <Point>
          <coordinates>
            139.658579,35.606627,0
          </coordinates>
        </Point>
      </Placemark>
      <Placemark>
        <name>Au Bon Vieux Temps</name>
        <styleUrl>#icon-1899-0288D1-nodesc</styleUrl>
        <Point>
          <coordinates>
            139.6517588,35.6040657,0
          </coordinates>
        </Point>
      </Placemark>
      <Placemark>
        <name>Sobamae Nagae</name>
        <styleUrl>#icon-1899-0288D1-nodesc</styleUrl>
        <Point>
          <coordinates>
            139.6521387,35.6080423,0
          </coordinates>
        </Point>
      </Placemark>
      <Placemark>
        <name>PÂTISSERIE ASAKO IWAYANAGI</name>
        <styleUrl>#icon-1899-0288D1-nodesc</styleUrl>
        <Point>
          <coordinates>
            139.6501484,35.6080517,0
          </coordinates>
        </Point>
      </Placemark>
      <Placemark>
        <name><![CDATA[L'atelier a ma facon]]></name>
        <styleUrl>#icon-1899-0288D1-nodesc</styleUrl>
        <Point>
          <coordinates>
            139.6388028,35.6125957,0
          </coordinates>
        </Point>
      </Placemark>
      <Placemark>
        <name>La Bouef</name>
        <styleUrl>#icon-1899-0288D1-nodesc</styleUrl>
        <Point>
          <coordinates>
            139.6412827,35.6203921,0
          </coordinates>
        </Point>
      </Placemark>
      <Placemark>
        <name>Coffee tō Donuts Fuwamochitei</name>
        <styleUrl>#icon-1899-0288D1-nodesc</styleUrl>
        <Point>
          <coordinates>
            139.6346191,35.6275173,0
          </coordinates>
        </Point>
      </Placemark>
      <Placemark>
        <name>Ryoura</name>
        <styleUrl>#icon-1899-0288D1-nodesc</styleUrl>
        <Point>
          <coordinates>
            139.6331104,35.6289326,0
          </coordinates>
        </Point>
      </Placemark>
      <Placemark>
        <name>Los Tacos Azules</name>
        <styleUrl>#icon-1899-0288D1-nodesc</styleUrl>
        <Point>
          <coordinates>
            139.6681172,35.6383451,0
          </coordinates>
        </Point>
      </Placemark>
      <Placemark>
        <name>Bäckerei Brotheim</name>
        <styleUrl>#icon-1899-0288D1-nodesc</styleUrl>
        <Point>
          <coordinates>
            139.6447314,35.6349629,0
          </coordinates>
        </Point>
      </Placemark>
      <Placemark>
        <name>Plaisir</name>
        <styleUrl>#icon-1899-0288D1-nodesc</styleUrl>
        <Point>
          <coordinates>
            139.665972,35.6506784,0
          </coordinates>
        </Point>
      </Placemark>
      <Placemark>
        <name>Boulangerie Sudo</name>
        <styleUrl>#icon-1899-0288D1-nodesc</styleUrl>
        <Point>
          <coordinates>
            139.6548963,35.6437788,0
          </coordinates>
        </Point>
      </Placemark>
      <Placemark>
        <name>Yakiniku Fuchioka</name>
        <styleUrl>#icon-1899-0288D1-nodesc</styleUrl>
        <Point>
          <coordinates>
            139.6361417,35.6483012,0
          </coordinates>
        </Point>
      </Placemark>
      <Placemark>
        <name>Ramen MAIKAGURA</name>
        <styleUrl>#icon-1899-0288D1-nodesc</styleUrl>
        <Point>
          <coordinates>
            139.6189794,35.6480617,0
          </coordinates>
        </Point>
      </Placemark>
      <Placemark>
        <name>Ramen Nishikawa</name>
        <styleUrl>#icon-1899-0288D1-nodesc</styleUrl>
        <Point>
          <coordinates>
            139.6181527,35.6442212,0
          </coordinates>
        </Point>
      </Placemark>
      <Placemark>
        <name>Soshigaya Nanachome Shokudo</name>
        <styleUrl>#icon-1899-0288D1-nodesc</styleUrl>
        <Point>
          <coordinates>
            139.609399,35.64416,0
          </coordinates>
        </Point>
      </Placemark>
      <Placemark>
        <name>Creperie Tirol</name>
        <styleUrl>#icon-1899-0288D1-nodesc</styleUrl>
        <Point>
          <coordinates>
            139.6081845,35.6411855,0
          </coordinates>
        </Point>
      </Placemark>
      <Placemark>
        <name>Fiocchi</name>
        <styleUrl>#icon-1899-0288D1-nodesc</styleUrl>
        <Point>
          <coordinates>
            139.6065174,35.6429789,0
          </coordinates>
        </Point>
      </Placemark>
      <Placemark>
        <name><![CDATA[L'atelier de Plaisir]]></name>
        <styleUrl>#icon-1899-0288D1-nodesc</styleUrl>
        <Point>
          <coordinates>
            139.6056981,35.6416716,0
          </coordinates>
        </Point>
      </Placemark>
      <Placemark>
        <name>Seijo Alpes</name>
        <styleUrl>#icon-1899-0288D1-nodesc</styleUrl>
        <Point>
          <coordinates>
            139.598053,35.6403541,0
          </coordinates>
        </Point>
      </Placemark>
      <Placemark>
        <name>Ramen Shibata</name>
        <styleUrl>#icon-1899-0288D1-nodesc</styleUrl>
        <Point>
          <coordinates>
            139.5766399,35.6319655,0
          </coordinates>
        </Point>
      </Placemark>
      <Placemark>
        <name>kitchen and CURRY</name>
        <styleUrl>#icon-1899-0288D1-nodesc</styleUrl>
        <Point>
          <coordinates>
            139.6585692,35.6638999,0
          </coordinates>
        </Point>
      </Placemark>
      <Placemark>
        <name>Chūkasoba Kotetsu</name>
        <styleUrl>#icon-1899-0288D1-nodesc</styleUrl>
        <Point>
          <coordinates>
            139.6663347,35.6646202,0
          </coordinates>
        </Point>
      </Placemark>
      <Placemark>
        <name>Junteuchi Men to Mirai</name>
        <styleUrl>#icon-1899-0288D1-nodesc</styleUrl>
        <Point>
          <coordinates>
            139.6686423,35.6635774,0
          </coordinates>
        </Point>
      </Placemark>
      <Placemark>
        <name>Pannya</name>
        <styleUrl>#icon-1899-0288D1-nodesc</styleUrl>
        <Point>
          <coordinates>
            139.6688275,35.6630259,0
          </coordinates>
        </Point>
      </Placemark>
      <Placemark>
        <name>Pâtisserie Noliette</name>
        <styleUrl>#icon-1899-0288D1-nodesc</styleUrl>
        <Point>
          <coordinates>
            139.6387802,35.6656426,0
          </coordinates>
        </Point>
      </Placemark>
      <Placemark>
        <name>Sakurajosui Funakoshi</name>
        <styleUrl>#icon-1899-0288D1-nodesc</styleUrl>
        <Point>
          <coordinates>
            139.6335684,35.6688203,0
          </coordinates>
        </Point>
      </Placemark>
      <Placemark>
        <name>Rāmen Koike</name>
        <styleUrl>#icon-1899-0288D1-nodesc</styleUrl>
        <Point>
          <coordinates>
            139.622378,35.6704981,0
          </coordinates>
        </Point>
      </Placemark>
      <Placemark>
        <name>Shirokuro</name>
        <styleUrl>#icon-1899-0288D1-nodesc</styleUrl>
        <Point>
          <coordinates>
            139.6155288,35.6697618,0
          </coordinates>
        </Point>
      </Placemark>
      <Placemark>
        <name>Chūkasoba Seijo Seika</name>
        <styleUrl>#icon-1899-0288D1-nodesc</styleUrl>
        <Point>
          <coordinates>
            139.6089501,35.6713205,0
          </coordinates>
        </Point>
      </Placemark>
      <Placemark>
        <name>Pâtisserie Yu Sasage</name>
        <styleUrl>#icon-1899-0288D1-nodesc</styleUrl>
        <Point>
          <coordinates>
            139.5989479,35.6698919,0
          </coordinates>
        </Point>
      </Placemark>
      <Placemark>
        <name>La Vieille France head office</name>
        <styleUrl>#icon-1899-0288D1-nodesc</styleUrl>
        <Point>
          <coordinates>
            139.6032005,35.6629744,0
          </coordinates>
        </Point>
      </Placemark>
      <Placemark>
        <name>Shibasakitei</name>
        <styleUrl>#icon-1899-0288D1-nodesc</styleUrl>
        <Point>
          <coordinates>
            139.5738116,35.6575998,0
          </coordinates>
        </Point>
      </Placemark>
      <Placemark>
        <name>Don Bravo</name>
        <styleUrl>#icon-1899-0288D1-nodesc</styleUrl>
        <Point>
          <coordinates>
            139.5596223,35.6482342,0
          </coordinates>
        </Point>
      </Placemark>
      <Placemark>
        <name>Kanaya</name>
        <styleUrl>#icon-1899-0288D1-nodesc</styleUrl>
        <Point>
          <coordinates>
            139.6564674,35.6846687,0
          </coordinates>
        </Point>
      </Placemark>
      <Placemark>
        <name>Nishi Eifuku Dried Sardine Box</name>
        <styleUrl>#icon-1899-0288D1-nodesc</styleUrl>
        <Point>
          <coordinates>
            139.6364187,35.6787322,0
          </coordinates>
        </Point>
      </Placemark>
      <Placemark>
        <name>Tantantei</name>
        <styleUrl>#icon-1899-0288D1-nodesc</styleUrl>
        <Point>
          <coordinates>
            139.6274106,35.6818167,0
          </coordinates>
        </Point>
      </Placemark>
      <Placemark>
        <name>Shiosoba Jiku</name>
        <styleUrl>#icon-1899-0288D1-nodesc</styleUrl>
        <Point>
          <coordinates>
            139.6189731,35.6897616,0
          </coordinates>
        </Point>
      </Placemark>
      <Placemark>
        <name>ENTUKO</name>
        <styleUrl>#icon-1899-0288D1-nodesc</styleUrl>
        <Point>
          <coordinates>
            139.5960969,35.706367,0
          </coordinates>
        </Point>
      </Placemark>
      <Placemark>
        <name>Menson Rage</name>
        <styleUrl>#icon-1899-0288D1-nodesc</styleUrl>
        <Point>
          <coordinates>
            139.5991777,35.7017815,0
          </coordinates>
        </Point>
      </Placemark>
      <Placemark>
        <name>SPOON</name>
        <styleUrl>#icon-1899-0288D1-nodesc</styleUrl>
        <Point>
          <coordinates>
            139.5996828,35.7027309,0
          </coordinates>
        </Point>
      </Placemark>
      <Placemark>
        <name>カレーショップ フェンネル</name>
        <styleUrl>#icon-1899-0288D1-nodesc</styleUrl>
        <Point>
          <coordinates>
            139.5992502,35.7017901,0
          </coordinates>
        </Point>
      </Placemark>
      <Placemark>
        <name>TONKATSU KEITA (とんかつ けい太)</name>
        <styleUrl>#icon-1899-0288D1-nodesc</styleUrl>
        <Point>
          <coordinates>
            139.5958069,35.7036497,0
          </coordinates>
        </Point>
      </Placemark>
      <Placemark>
        <name>A Tes Souhaits</name>
        <styleUrl>#icon-1899-0288D1-nodesc</styleUrl>
        <Point>
          <coordinates>
            139.5907228,35.7090348,0
          </coordinates>
        </Point>
      </Placemark>
      <Placemark>
        <name>Liberté Pâtisserie Boulangerie Tokyo Kichijōji</name>
        <styleUrl>#icon-1899-0288D1-nodesc</styleUrl>
        <Point>
          <coordinates>
            139.5773157,35.7058765,0
          </coordinates>
        </Point>
      </Placemark>
      <Placemark>
        <name><![CDATA[L'EPICURIEN]]></name>
        <styleUrl>#icon-1899-0288D1-nodesc</styleUrl>
        <Point>
          <coordinates>
            139.5783069,35.7019697,0
          </coordinates>
        </Point>
      </Placemark>
      <Placemark>
        <name>Ramen Sukoyaka</name>
        <styleUrl>#icon-1899-0288D1-nodesc</styleUrl>
        <Point>
          <coordinates>
            139.5643139,35.7037564,0
          </coordinates>
        </Point>
      </Placemark>
      <Placemark>
        <name>Ganso Stamina Manten Ramen Suzuki</name>
        <styleUrl>#icon-1899-0288D1-nodesc</styleUrl>
        <Point>
          <coordinates>
            139.5612484,35.6997818,0
          </coordinates>
        </Point>
      </Placemark>
      <Placemark>
        <name>Ramen Sakurai</name>
        <styleUrl>#icon-1899-0288D1-nodesc</styleUrl>
        <Point>
          <coordinates>
            139.559611,35.7094772,0
          </coordinates>
        </Point>
      </Placemark>
    </Folder>
  </Document>
</kml>
