[
  {
    "name": "Daiwa Sushi",
    "lat": 35.6521793,
    "lng": 139.7843055,
    "cuisine": "sushi",
    "rating": 4.4,
    "price_level": 2,
    "area": "Koto city",
    "google_map_url" : "https://www.google.com/maps/place/Daiwa+Sushi/@35.6633035,139.7445464,13.51z/data=!4m15!1m8!3m7!1s0x60188be701836fbb:0x604685b30ba99851!2sGinza,+Chuo+City,+Tokyo+104-0061,+Japan!3b1!8m2!3d35.6712228!4d139.7664859!16zL20vMDFrNHQy!3m5!1s0x60188bd93b027ad9:0x6447b8d96664e996!8m2!3d35.6447877!4d139.7860322!16s%2Fg%2F1thgbfwd?entry=ttu&g_ep=EgoyMDI1MDcxNi4wIKXMDSoASAFQAw%3D%3D"
  },
  {
    "name": "Kanemasu",
    "lat": 35.659779,
    "lng": 139.7760592,
    "cuisine": "Izakaya",
    "rating": 4.4,
    "price_level": 2,
    "area": "Tsukishima",
    "google_map_url": "https://www.google.com/maps/place/Kanemasu/@35.659779,139.7760592,14z/data=!3m1!5s0x6018897c427e6e77:0x1d230c8c358a702a!4m15!1m8!3m7!1s0x60188be701836fbb:0x604685b30ba99851!2sGinza,+Chuo+City,+Tokyo+104-0061,+Japan!3b1!8m2!3d35.6712228!4d139.7664859!16zL20vMDFrNHQy!3m5!1s0x6018897c6b49684f:0x2d95e6ad8ecdf84b!8m2!3d35.6600055!4d139.7767767!16s%2Fg%2F1tmqls4w?entry=ttu&g_ep=EgoyMDI1MDcxNi4wIKXMDSoASAFQAw%3D%3D"
  },
  {
    "name": "Kishidaya",
    "lat": 35.6593102,
    "lng": 139.7819454,
    "cuisine": "Izakaya",
    "rating": 4.4,
    "price_level": 2,
    "area": "Tsukishima",
    "google_map_url": "https://www.google.com/maps/place/Kishidaya/@35.660147,139.7810871,16z/data=!4m15!1m8!3m7!1s0x60188be701836fbb:0x604685b30ba99851!2sGinza,+Chuo+City,+Tokyo+104-0061,+Japan!3b1!8m2!3d35.6712228!4d139.7664859!16zL20vMDFrNHQy!3m5!1s0x6018897b10003721:0x5cba0c02cfbda288!8m2!3d35.6623868!4d139.7798884!16s%2Fg%2F1tltmbz7?entry=ttu&g_ep=EgoyMDI1MDcxNi4wIKXMDSoASAFQAw%3D%3D"
  },
  {
    "name": "Yakiniku Rinn",
    "lat": 35.660147,
    "lng": 139.7810871,
    "cuisine": "yakiniku",
    "rating": 4.1,
    "price_level": 3,
    "area": "Tsukishima",
    "google_map_url": "https://www.google.com/maps/place/Yakiniku+Rinn/@35.660147,139.7810871,16z/data=!4m15!1m8!3m7!1s0x60188be701836fbb:0x604685b30ba99851!2sGinza,+Chuo+City,+Tokyo+104-0061,+Japan!3b1!8m2!3d35.6712228!4d139.7664859!16zL20vMDFrNHQy!3m5!1s0x6018897a9017a9bd:0x8cdddc2f800c620b!8m2!3d35.6632596!4d139.7825003!16s%2Fg%2F1td330lm?entry=ttu&g_ep=EgoyMDI1MDcxNi4wIKXMDSoASAFQAw%3D%3D"
  },
  {
    "name": "Zaichi",
    "lat": 35.660147,
    "lng": 139.7810871,
    "cuisine": "yakiniku",
    "rating": 4.1,
    "price_level": 2,
    "area": "Tsukishima",
    "google_map_url": "https://www.google.com/maps/place/Zaichi/@35.6622187,139.7830045,16z/data=!4m15!1m8!3m7!1s0x60188be701836fbb:0x604685b30ba99851!2sGinza,+Chuo+City,+Tokyo+104-0061,+Japan!3b1!8m2!3d35.6712228!4d139.7664859!16zL20vMDFrNHQy!3m5!1s0x6018897a782bbe49:0x155a97c4c1c63041!8m2!3d35.6622757!4d139.7829789!16s%2Fg%2F1tsljq4r?entry=ttu&g_ep=EgoyMDI1MDcxNi4wIKXMDSoASAFQAw%3D%3D"
  },
  {
    "name": "Handung",
    "lat": 35.6636552,
    "lng": 139.7848358,
    "cuisine": "korean restaurant",
    "rating": 4.3,
    "price_level": 2,
    "area": "Tsukishima",
    "google_map_url": "https://www.google.com/maps/place/Handung/@35.6800292,139.7766797,13.71z/data=!4m15!1m8!3m7!1s0x60188be701836fbb:0x604685b30ba99851!2sGinza,+Chuo+City,+Tokyo+104-0061,+Japan!3b1!8m2!3d35.6712228!4d139.7664859!16zL20vMDFrNHQy!3m5!1s0x60188970f402ce8b:0x11f0d887c258ad5f!8m2!3d35.663339!4d139.784692!16s%2Fg%2F1txy2b14?entry=ttu&g_ep=EgoyMDI1MDcxNi4wIKXMDSoASAFQAw%3D%3D"
  },
  {
    "name": "Sushi Dai",
    "lat": 35.664581,
    "lng": 139.7707717,
    "cuisine": "sushi",
    "rating": 4.4,
    "price_level": 2,
    "area": "Tsukiji",
    "google_map_url": "https://www.google.com/maps/place/Sushi+Dai/@35.664581,139.7707717,17z/data=!4m14!1m7!3m6!1s0x60188bd912580d23:0xb04b74ce2a2f6875!2sSushi+Dai!8m2!3d35.664581!4d139.7723!16s%2Fg%2F1v2kxf7n!3m5!1s0x60188bd912580d23:0xb04b74ce2a2f6875!8m2!3d35.664581!4d139.7723!16s%2Fg%2F1v2kxf7n?entry=ttu&g_ep=EgoyMDI1MDcxNi4wIKXMDSoASAFQAw%3D%3D"
  },
  {
    "name": "Motodane",
    "lat": 35.664581,
    "lng": 139.7707717,
    "cuisine": "sushi",
    "rating": 4.5,
    "price_level": 2,
    "area": "Tsukiji",
    "google_map_url": "https://www.google.com/maps/place/Motodane/@35.664581,139.7707717,17z/data=!4m14!1m7!3m6!1s0x60188bd912580d23:0xb04b74ce2a2f6875!2sSushi+Dai!8m2!3d35.664581!4d139.7723!16s%2Fg%2F1v2kxf7n!3m5!1s0x60188bd8ba1fefe3:0xe5fd10a167cc179e!8m2!3d35.6647206!4d139.7719199!16s%2Fg%2F1tp082np?entry=ttu&g_ep=EgoyMDI1MDcxNi4wIKXMDSoASAFQAw%3D%3D"
  },
  {
    "name": "Omakase",
    "lat": 35.6644415,
    "lng": 139.770128,
    "cuisine": "sushi",
    "rating": 4.6,
    "price_level": 3,
    "area": "Tsukiji",
    "google_map_url": "https://www.google.com/maps/place/Omakase/@35.6644415,139.770128,17z/data=!4m14!1m7!3m6!1s0x60188bd912580d23:0xb04b74ce2a2f6875!2sSushi+Dai!8m2!3d35.664581!4d139.7723!16s%2Fg%2F1v2kxf7n!3m5!1s0x60188bfd81119db7:0x27acc90fd76fa93c!8m2!3d35.664618!4d139.7714959!16s%2Fg%2F11frncn0jr?entry=ttu&g_ep=EgoyMDI1MDcxNi4wIKXMDSoASAFQAw%3D%3D"
  },
  {
    "name": "Choseian",
    "lat": 35.6647205,
    "lng": 139.7706269,
    "cuisine": "soba",
    "rating": 4.2,
    "price_level": 1,
    "area": "Tsukiji",
    "google_map_url": "https://www.google.com/maps/place/Choseian/@35.6647205,139.7706269,18.2z/data=!3m1!5s0x60188bdf345fd11f:0xe44ef13b83805c07!4m14!1m7!3m6!1s0x60188bd912580d23:0xb04b74ce2a2f6875!2sSushi+Dai!8m2!3d35.664581!4d139.7723!16s%2Fg%2F1v2kxf7n!3m5!1s0x60188bdf344539dd:0xd025a88778dd395a!8m2!3d35.6653014!4d139.7714963!16s%2Fg%2F1vxf_4lc?entry=ttu&g_ep=EgoyMDI1MDcxNi4wIKXMDSoASAFQAw%3D%3D"
  },
  {
    "name": "Sushikuni",
    "lat": 35.6647205,
    "lng": 139.7706269,
    "cuisine": "sushi",
    "rating": 4.3,
    "price_level": 2,
    "area": "Tsukiji",
    "google_map_url": "https://www.google.com/maps/place/Sushikuni/@35.6647205,139.7706269,18.2z/data=!4m14!1m7!3m6!1s0x60188bd912580d23:0xb04b74ce2a2f6875!2sSushi+Dai!8m2!3d35.664581!4d139.7723!16s%2Fg%2F1v2kxf7n!3m5!1s0x60188bc3797d1a45:0x6f656141e6198c77!8m2!3d35.6648623!4d139.7706727!16s%2Fg%2F1tfddg30?entry=ttu&g_ep=EgoyMDI1MDcxNi4wIKXMDSoASAFQAw%3D%3D"
  },
  {
    "name": "Seagen",
    "lat": 35.6648407,
    "lng": 139.7705827,
    "cuisine": "seafood restaurant",
    "rating": 4.7,
    "price_level": 2,
    "area": "Tsukiji",
    "google_map_url": "https://www.google.com/maps/place/Seagen/@35.6648407,139.7705827,18z/data=!4m14!1m7!3m6!1s0x60188bd912580d23:0xb04b74ce2a2f6875!2sSushi+Dai!8m2!3d35.664581!4d139.7723!16s%2Fg%2F1v2kxf7n!3m5!1s0x60188b17b1fa1fd7:0x1ba3658148943403!8m2!3d35.6649205!4d139.7704994!16s%2Fg%2F11qh2k8trf?entry=ttu&g_ep=EgoyMDI1MDcxNi4wIKXMDSoASAFQAw%3D%3D"
  },
  {
    "name": "Tsukiji Kagura Sushi",
    "lat": 35.664887,
    "lng": 139.7708457,
    "cuisine": "sushi",
    "rating": 4.2,
    "price_level": 2,
    "area": "Tsukiji",
    "google_map_url": "https://www.google.com/maps/place/Tsukiji+Kagura+Sushi+Annex/@35.6652693,139.7700284,18.74z/data=!4m6!3m5!1s0x60188bd8d461e1f5:0xff67e1d407df2c30!8m2!3d35.6651429!4d139.7701359!16s%2Fg%2F1262dh8s5?entry=ttu&g_ep=EgoyMDI1MDcxNi4wIKXMDSoASAFQAw%3D%3D"
  },
  {
    "name": "Tsukiji Unitora Nakadori",
    "lat": 35.6652693,
    "lng": 139.7700284,
    "cuisine": "sushi",
    "rating": 4.3,
    "price_level": 2,
    "area": "Tsukiji",
    "google_map_url": "https://www.google.com/maps/place/Tsukiji+Unitora+Nakadori/@35.6652693,139.7700284,18.74z/data=!3m1!5s0x60188bdf2642ec29:0x203377ee74917f81!4m6!3m5!1s0x60188bdf270a08ed:0x6d303301c3bd21f8!8m2!3d35.6655793!4d139.7705094!16s%2Fg%2F11c1vgdprz?entry=ttu&g_ep=EgoyMDI1MDcxNi4wIKXMDSoASAFQAw%3D%3D"
  },
  {
    "name": "Tsukiji Itadori Bekkan",
    "lat": 35.6653025,
    "lng": 139.7703609,
    "cuisine": "sushi",
    "rating": 4.4,
    "price_level": 2,
    "area": "Tsukiji",
    "google_map_url" : "https://www.google.com/maps/place/Tsukiji+Itadori+Bekkan/@35.6653025,139.7703609,19.13z/data=!4m6!3m5!1s0x60188bdf20adecb3:0x471d374852f94b62!8m2!3d35.665613!4d139.7703696!16s%2Fg%2F1tpc7z5z?entry=ttu&g_ep=EgoyMDI1MDcxNi4wIKXMDSoASAFQAw%3D%3D"
  },
  {
    "name": "Kakigoya",
    "lat": 35.6653363,
    "lng": 139.7701088,
    "cuisine": "seafood restaurant",
    "rating": 4,
    "price_level": 2,
    "area": "Tsukiji",
    "google_map_url": "https://www.google.com/maps/place/Kakigoya/@35.6653363,139.7701088,19.13z/data=!4m6!3m5!1s0x60188bded917cef1:0x7800653d274bd28c!8m2!3d35.6654758!4d139.7700482!16s%2Fg%2F11bbrlnld1?entry=ttu&g_ep=EgoyMDI1MDcxNi4wIKXMDSoASAFQAw%3D%3D"
  },
  {
    "name": "Tsukiji Itadori Uogashi Senryo",
    "lat": 35.6653363,
    "lng": 139.7701088,
    "cuisine": "seafood restaurant",
    "rating": 4.0,
    "price_level": 2,
    "area": "Tsukiji",
    "google_map_url": "https://www.google.com/maps/place/Tsukiji+Itadori+Uogashi+Senryo/@35.6653363,139.7701088,19.13z/data=!4m6!3m5!1s0x60188b4ff251458f:0x88e5b545114d029b!8m2!3d35.6655728!4d139.7698479!16s%2Fg%2F1tl1nfkt?entry=ttu&g_ep=EgoyMDI1MDcxNi4wIKXMDSoASAFQAw%3D%3D"
  },
  {
    "name": "Kitsuneya",
    "lat": 35.6653363,
    "lng": 139.7701088,
    "cuisine": "Syokudo and Teishoku",
    "rating": 4.5,
    "price_level": 2,
    "area": "Tsukiji",
    "google_map_url": "https://www.google.com/maps/place/Kitsuneya/@35.6653363,139.7701088,19.13z/data=!4m6!3m5!1s0x60188bdedd884c3f:0x955ce7e61b61f102!8m2!3d35.6657341!4d139.7698435!16s%2Fg%2F1tznmbkl?entry=ttu&g_ep=EgoyMDI1MDcxNi4wIKXMDSoASAFQAw%3D%3D"
  },
  {
    "name": "Tsukiji Sushicho, Main Store",
    "lat": 35.667265,
    "lng": 139.7719413,
    "cuisine": "sushi",
    "rating": 4.5,
    "price_level": 1,
    "area": "Tsukiji",
    "google_map_url": "https://www.google.com/maps/place/Tsukiji+Sushicho,+Main+Store/@35.667265,139.7719413,17.73z/data=!3m1!5s0x60188bdf78d74729:0x78092c61dedbb228!4m6!3m5!1s0x60188bdf78cffed1:0x2a66668ec38d1d08!8m2!3d35.667793!4d139.772517!16s%2Fg%2F1tnl1cwb?entry=ttu&g_ep=EgoyMDI1MDcxNi4wIKXMDSoASAFQAw%3D%3D"
  },
  {
    "name": "Turret Coffee Tsukiji",
    "lat": 35.6688537,
    "lng": 139.768497,
    "cuisine": "cafe",
    "rating": 4.8,
    "price_level": 1,
    "area": "Tsukiji",
    "google_map_url": "https://www.google.com/maps/place/Turret+Coffee+Tsukiji/@35.6688537,139.768497,16.2z/data=!3m1!5s0x60188bdf9be882d7:0xe1d22b0036c74f18!4m6!3m5!1s0x60188ba3e3e2815b:0x1b877ae335ae5b65!8m2!3d35.6680392!4d139.7719961!16s%2Fg%2F1pv20dmh4?entry=ttu&g_ep=EgoyMDI1MDcxNi4wIKXMDSoASAFQAw%3D%3D"
  },
  {
    "name": "Glitch Coffee and Roasters GINZA",
    "lat": 35.6687247,
    "lng": 139.7688969,
    "cuisine": "coffee shop",
    "rating": 4.3,
    "price_level": 1,
    "area": "Ginza",
    "google_map_url": "https://www.google.com/maps/place/Glitch+Coffee+and+Roasters+GINZA/@35.6687247,139.7688969,17.08z/data=!4m6!3m5!1s0x60188bfa45634c13:0x6abbdc48213cb890!8m2!3d35.6689171!4d139.7686324!16s%2Fg%2F11kbh8m4c2?entry=ttu&g_ep=EgoyMDI1MDcxNi4wIKXMDSoASAFQAw%3D%3D"
  },
  {
    "name": "Tokyo Chinese Ichirin",
    "lat": 35.6703958,
    "lng": 139.769882,
    "cuisine": "mandarin restaurant",
    "rating": 4.3,
    "price_level": 1,
    "area": "Ginza",
    "google_map_url": "https://www.google.com/maps/place/Tokyo+Chinese+Ichirin/@35.6703958,139.769882,16.72z/data=!3m1!5s0x60188bdfafad9765:0x1a4b5703d9db3282!4m6!3m5!1s0x60188be0754f21d1:0x27f1704b66c42e8f!8m2!3d35.6698572!4d139.7715378!16s%2Fg%2F12hrqrxxf?entry=ttu&g_ep=EgoyMDI1MDcxNi4wIKXMDSoASAFQAw%3D%3D"
  },
  {
    "name": "Kagaribi",
    "lat": 35.6734631,
    "lng": 139.7722075,
    "cuisine": "Ramen",
    "rating": 4.2,
    "price_level": 1,
    "area": "Ginza",
    "google_map_url": "https://www.google.com/maps/place/Kagaribi/@35.6734631,139.7722075,16.03z/data=!4m6!3m5!1s0x6018890058101b81:0x8667d426cc3fb537!8m2!3d35.6721011!4d139.7742761!16s%2Fg%2F11vz49clkq?entry=ttu&g_ep=EgoyMDI1MDcxNi4wIKXMDSoASAFQAw%3D%3D"
  },
  {
    "name": "Sushi Hashimoto",
    "lat": 35.6729071,
    "lng": 139.7698786,
    "cuisine": "sushi",
    "rating": 4.6,
    "price_level": 3,
    "area": "Ginza",
    "google_map_url": "https://www.google.com/maps/place/Sushi+Hashimoto/@35.6729071,139.7698786,17.26z/data=!3m1!5s0x6018895fa47452dd:0x24be401c9c6af3d1!4m6!3m5!1s0x6018895fb6228775:0xdc17ec5a0a9dde44!8m2!3d35.6729301!4d139.7744693!16s%2Fg%2F11b6v9q530?entry=ttu&g_ep=EgoyMDI1MDcxNi4wIKXMDSoASAFQAw%3D%3D"
  },
  {
    "name": "Ginza Hachigou",
    "lat": 35.6681166,
    "lng": 139.7643577,
    "cuisine": "ramen",
    "rating": 4.3,
    "price_level": 1,
    "area": "Ginza",
    "google_map_url": "https://www.google.com/maps/place/Ginza+Hachigou/@35.6681166,139.7643577,16.39z/data=!3m1!5s0x60188be0f4544bed:0xb84bfabf76f32dde!4m6!3m5!1s0x60188be664634e5f:0xb960da45f432b5da!8m2!3d35.6705477!4d139.77015!16s%2Fg%2F11f9x3zj8t?entry=ttu&g_ep=EgoyMDI1MDcxNi4wIKXMDSoASAFQAw%3D%3D"
  },
  {
    "name": "Sushi Satake",
    "lat": 35.6663812,
    "lng": 139.7631849,
    "cuisine": "sushi",
    "rating": 4.2,
    "price_level": 3,
    "area": "Ginza",
    "google_map_url": "https://www.google.com/maps/place/Sushi+Satake/@35.6663812,139.7631849,17.41z/data=!3m1!5s0x60188bdd5e137295:0xc255a829ab7ea8a7!4m6!3m5!1s0x60188bdd7039ba35:0xf95c35d866239375!8m2!3d35.6664415!4d139.7639102!16s%2Fg%2F11c53gqs61?entry=ttu&g_ep=EgoyMDI1MDcxNi4wIKXMDSoASAFQAw%3D%3D"
  },
  {
    "name": "Mensho Ginzasa",
    "lat": 35.6676845,
    "lng": 139.7620296,
    "cuisine": "ramen",
    "rating": 4.1,
    "price_level": 1,
    "area": "Ginza",
    "google_map_url": "https://www.google.com/maps/place/Mensho+Ginzasa/@35.6676845,139.7620296,16.08z/data=!4m6!3m5!1s0x60188bdd58dfe999:0x1c539e13a6fc5d81!8m2!3d35.6662251!4d139.7634212!16s%2Fg%2F1hc1b5888?entry=ttu&g_ep=EgoyMDI1MDcxNi4wIKXMDSoASAFQAw%3D%3D"
  },
  {
    "name": "LA BETTOLA da Ochiai",
    "lat": 35.6700888,
    "lng": 139.7654958,
    "cuisine": "Italian Restaurant",
    "rating": 4.2,
    "price_level": 2,
    "area": "Ginza",
    "google_map_url": "https://www.google.com/maps/place/LA+BETTOLA+da+Ochiai/@35.6726945,139.7710241,16.19z/data=!4m6!3m5!1s0x60188be1bb7d0513:0xc68eaf86a47a5baf!8m2!3d35.6727778!4d139.7711111!16s%2Fg%2F1tngq8dq?entry=ttu&g_ep=EgoyMDI1MDcxNi4wIKXMDSoASAFQAw%3D%3D"
  },
  {
    "name": "Ginza Uchiyama",
    "lat": 35.671413,
    "lng": 139.767751,
    "cuisine": "Kaiseki",
    "rating": 4.5,
    "price_level": 3,
    "area": "Ginza",
    "google_map_url": "https://www.google.com/maps/place/Ginza+Uchiyama/@35.671413,139.767751,16.19z/data=!3m1!5s0x60188be108b6148f:0x7b73025436a2bea5!4m6!3m5!1s0x60188be108c85693:0x2088da87fc4c06ad!8m2!3d35.6721579!4d139.7700529!16s%2Fg%2F1vhly575?entry=ttu&g_ep=EgoyMDI1MDcxNi4wIKXMDSoASAFQAw%3D%3D"
  },
  {
    "name": "Tokihami",
    "lat": 35.6705258,
    "lng": 139.7649642,
    "cuisine": "Izakaya",
    "rating": 4.5,
    "price_level": 2,
    "area": "Ginza",
    "google_map_url": "https://www.google.com/maps/place/Tokihami/@35.6705258,139.7649642,16.19z/data=!3m1!5s0x60188be6ecc11ecb:0x133411173a50437a!4m6!3m5!1s0x60188b286e25019f:0xdd7ed1b47f851eb6!8m2!3d35.6708207!4d139.768861!16s%2Fg%2F11h1263tyh?entry=ttu&g_ep=EgoyMDI1MDcxNi4wIKXMDSoASAFQAw%3D%3D"
  },
  {
    "name": "Ginza Yoshizawa (Kaiseki)",
    "lat": 35.6701246,
    "lng": 139.7644285,
    "cuisine": "kaiseki",
    "rating": 4.6,
    "price_level": 3,
    "area": "Ginza",
    "google_map_url": "https://www.google.com/maps/place/Ginza+Yoshizawa+(Kaiseki)/@35.6701246,139.7644285,16.58z/data=!3m1!5s0x60188be3e20a46ff:0x4a4a3ff26e86d2a4!4m6!3m5!1s0x60188be16178dfc7:0x7d9d7376de082452!8m2!3d35.6733902!4d139.7693958!16s%2Fg%2F11b6ghs0bc?entry=ttu&g_ep=EgoyMDI1MDcxNi4wIKXMDSoASAFQAw%3D%3D"
  },
  {
    "name": "王十里",
    "lat": 35.6700112,
    "lng": 139.7643598,
    "cuisine": "Offal BBQ",
    "rating": 4.1,
    "price_level": 2,
    "area": "Ginza",
    "google_map_url": "https://www.google.com/maps/place/%E7%8E%8B%E5%8D%81%E9%87%8C/@35.6700112,139.7643598,17.09z/data=!3m1!5s0x60188be0d5b41919:0xd29049fdf3799b4a!4m6!3m5!1s0x60188be6c2fa912d:0xa380a341ca753c47!8m2!3d35.6708114!4d139.7666089!16s%2Fg%2F1vqmjc08?entry=ttu&g_ep=EgoyMDI1MDcxNi4wIKXMDSoASAFQAw%3D%3D"
  },
  {
    "name": "Yakiniku Tokyo-en",
    "lat": 35.6699465,
    "lng": 139.764359,
    "cuisine": "yakiniku",
    "rating": 4.6,
    "price_level": 2,
    "area": "Ginza",
    "google_map_url": "https://www.google.com/maps/place/Yakiniku+Tokyo-en/@35.6697238,139.7625619,16.21z/data=!4m6!3m5!1s0x60188be6fa741577:0xabad82aa6f76f9cf!8m2!3d35.6703002!4d139.7655067!16s%2Fg%2F1tvw4x_y?entry=ttu&g_ep=EgoyMDI1MDcxNi4wIKXMDSoASAFQAw%3D%3D"
  },
  {
    "name": "Tricolore",
    "lat": 35.6680941,
    "lng": 139.7630788,
    "cuisine": "Cafe",
    "rating": 4.3,
    "price_level": 1,
    "area": "Ginza",
    "google_map_url": "https://www.google.com/maps/place/Tricolore/@35.6684488,139.7630485,17.21z/data=!4m6!3m5!1s0x60188bef080d6a0b:0x95cc0d6816085dc5!8m2!3d35.6702154!4d139.7650596!16s%2Fg%2F1tmqg619?entry=ttu&g_ep=EgoyMDI1MDcxNi4wIKXMDSoASAFQAw%3D%3D"
  },
  {
    "name": "Le Nougat",
    "lat": 35.6684488,
    "lng": 139.7630485,
    "cuisine": "Le Nougat",
    "rating": 4.5,
    "price_level": 1,
    "area": "Ginza",
    "google_map_url": "https://www.google.com/maps/place/Le+Nougat/@35.6692929,139.7648908,17z/data=!3m1!5s0x60188be7ab81e6f9:0xc2e0026e041b0e14!4m6!3m5!1s0x60188be7ab81fd1f:0x44a8cf3090238562!8m2!3d35.6692929!4d139.7648908!16s%2Fg%2F113j988d_?entry=ttu&g_ep=EgoyMDI1MDcxNi4wIKXMDSoASAFQAw%3D%3D"
  },
  {
    "name": "Mugi to Olive",
    "lat": 35.6690132,
    "lng": 139.7611371,
    "cuisine": "ramen",
    "rating": 4.1,
    "price_level": 1,
    "area": "Ginza",
    "google_map_url": "https://www.google.com/maps/place/Mugi+to+Olive/@35.6690132,139.7611371,16.63z/data=!3m1!5s0x60188be7b3beeb5b:0x987444706d84e89e!4m6!3m5!1s0x60188be7b3f21b49:0x7ad3e08de0900acf!8m2!3d35.6690038!4d139.7643604!16s%2Fg%2F11b6grstql?entry=ttu&g_ep=EgoyMDI1MDcxNi4wIKXMDSoASAFQAw%3D%3D"
  },
  {
    "name": "Tonkatsu Aoki Ginza 8-chome branch",
    "lat": 35.6686664,
    "lng": 139.7621705,
    "cuisine": "Tonkatsu",
    "rating": 4.4,
    "price_level": 2,
    "area": "Ginza",
    "google_map_url": "https://www.google.com/maps/place/Tonkatsu+Aoki+Ginza+8-chome+branch/@35.667858,139.761059,18.61z/data=!3m1!5s0x60188be88b28eb19:0x2f12b844c4f49b64!4m6!3m5!1s0x60188be88b319955:0x88a883bc4705644f!8m2!3d35.6682225!4d139.7614816!16s%2Fg%2F11f5bqkv29?entry=ttu&g_ep=EgoyMDI1MDcyMi4wIKXMDSoASAFQAw%3D%3D"
  },
  {
    "name": "Shiseido Parlour",
    "lat": 35.6690132,
    "lng": 139.7611371,
    "cuisine": "Japanese Western",
    "rating": 4.3,
    "price_level": 3,
    "area": "Ginza",
    "google_map_url": "https://www.google.com/maps/place/Shiseido+Parlour/@35.6690132,139.7611371,16.63z/data=!3m1!5s0x60188be88f2522bf:0xac9447359424eef!4m6!3m5!1s0x60188be88bb850a1:0x136bb3c52c5462f6!8m2!3d35.6685784!4d139.7619023!16s%2Fg%2F1tgmw83k?entry=ttu&g_ep=EgoyMDI1MDcxNi4wIKXMDSoASAFQAw%3D%3D"
  },
  {
    "name": "Tachibana Karintou",
    "lat": 35.6715536,
    "lng": 139.7640218,
    "cuisine": "Japanese confectionery shop",
    "rating": 4.3,
    "price_level": 1,
    "area": "Ginza",
    "google_map_url": "https://www.google.com/maps/place/Tachibana+Karintou/@35.6715536,139.7640218,16.73z/data=!3m1!5s0x60188be8ee14b309:0x35dcb7cddf45ccc1!4m6!3m5!1s0x60188be8ee7b087b:0x36d6a99e1f30d993!8m2!3d35.6685521!4d139.7609667!16s%2Fg%2F11b7gx8nfg?entry=ttu&g_ep=EgoyMDI1MDcxNi4wIKXMDSoASAFQAw%3D%3D"
  },
  {
    "name": "Ginza Katsukami",
    "lat": 35.6706221,
    "lng": 139.7635634,
    "cuisine": "Tonkatsu",
    "rating": 4.3,
    "price_level": 2,
    "area": "Ginza",
    "google_map_url": "https://www.google.com/maps/place/Ginza+Katsukami/@35.6706221,139.7635634,18.01z/data=!3m1!5s0x60188be60dc2beb9:0xef48ba62992cb926!4m6!3m5!1s0x60188bfca4c7d391:0xf52070b2a469b74a!8m2!3d35.6707448!4d139.7636601!16s%2Fg%2F11f8msh46r?entry=ttu&g_ep=EgoyMDI1MDcxNi4wIKXMDSoASAFQAw%3D%3D"
  },
  {
    "name": "Shizuka Natural Sweets Laboratory Ginza 5-chome Store",
    "lat": 35.6707476,
    "lng": 139.7640153,
    "cuisine": "Pastry",
    "rating": 4.3,
    "price_level": 2,
    "area": "Ginza",
    "google_map_url": "https://www.google.com/maps/place/Shizuka+Natural+Sweets+Laboratory+Ginza+5-chome+Store/@35.6708011,139.7630359,18.17z/data=!3m1!5s0x60188be66d21c6c7:0xce25fcad068be2b!4m6!3m5!1s0x60188b818a266a03:0xfdd10fd7dcfef1ec!8m2!3d35.6707934!4d139.7639194!16s%2Fg%2F11syccqyj6?entry=ttu&g_ep=EgoyMDI1MDcxNi4wIKXMDSoASAFQAw%3D%3D"
  },
  {
    "name": "Oumi beef yakiniku Nikutatsu Ginza",
    "lat": 35.6716781,
    "lng": 139.7642913,
    "cuisine": "yakiniku",
    "rating": 4.4,
    "price_level": 3,
    "area": "Ginza",
    "google_map_url": "https://www.google.com/maps/place/Oumi+beef+yakiniku+Nikutatsu+Ginza/@35.6716781,139.7642913,18.17z/data=!3m1!5s0x60188be675b7eb53:0xaee574c914ac0c7b!4m6!3m5!1s0x60188b94c135e869:0x858476f88c522914!8m2!3d35.6709248!4d139.7643791!16s%2Fg%2F11h4k7lzbc?entry=ttu&g_ep=EgoyMDI1MDcxNi4wIKXMDSoASAFQAw%3D%3D"
  },
  {
    "name": "WAKO Ginza Annex Tea Salon",
    "lat": 35.67237,
    "lng": 139.765017,
    "cuisine": "cafe",
    "rating": 4.3,
    "price_level": 1,
    "area": "Ginza",
    "google_map_url": "https://www.google.com/maps/place/WAKO+Ginza+Annex+Tea+Salon/@35.67237,139.765017,18.46z/data=!3m1!5s0x5f8f70fd5865c889:0xeaa6b9104462156!4m6!3m5!1s0x60188be5d659d38d:0x3c290fbd2f9315ad!8m2!3d35.6718168!4d139.7647701!16s%2Fg%2F1tdqzq4k?entry=ttu&g_ep=EgoyMDI1MDcxNi4wIKXMDSoASAFQAw%3D%3D"
  },
  {
    "name": "L'écrin Ginza",
    "lat": 35.6730377,
    "lng": 139.7648501,
    "cuisine": "French Restaurant",
    "rating": 4.5,
    "price_level": 3,
    "area": "Ginza",
    "google_map_url": "https://www.google.com/maps/place/L'%C3%A9crin+Ginza/@35.6730377,139.7648501,17.27z/data=!3m1!5s0x60188be4315d7f65:0x2a075d0a59b62508!4m6!3m5!1s0x60188be42abd316d:0xc15e559dab09f097!8m2!3d35.6718734!4d139.7654112!16s%2Fg%2F1tfsbv5v?entry=ttu&g_ep=EgoyMDI1MDcxNi4wIKXMDSoASAFQAw%3D%3D"
  },
  {
    "name": "Ginza Kazuya",
    "lat": 35.6726138,
    "lng": 139.7640468,
    "cuisine": "Japanese Sweets Restaurant",
    "rating": 4.3,
    "price_level": 1,
    "area": "Ginza",
    "google_map_url": "https://www.google.com/maps/place/Ginza+Kazuya/@35.6726138,139.7640468,17.47z/data=!3m1!5s0x60188be6ac7db53f:0xd26baadbed41e581!4m6!3m5!1s0x60188befb8601e1d:0x1a3b94fbc7ab76bb!8m2!3d35.673235!4d139.7660466!16s%2Fg%2F1tngq8fd?entry=ttu&g_ep=EgoyMDI1MDcxNi4wIKXMDSoASAFQAw%3D%3D"
  },
  {
    "name": "Sanshuya Ginza",
    "lat": 35.6740791,
    "lng": 139.7648739,
    "cuisine": "Izakaya",
    "rating": 4,
    "price_level": 1,
    "area": "Ginza",
    "google_map_url": "https://www.google.com/maps/place/Sanshuya+Ginza/@35.6740791,139.7648739,17.33z/data=!4m6!3m5!1s0x60188b58bcd565df:0x2e3b6a64127e6023!8m2!3d35.6745657!4d139.7662095!16s%2Fg%2F11g1mvg8nb?entry=ttu&g_ep=EgoyMDI1MDcxNi4wIKXMDSoASAFQAw%3D%3D"
  },
  {
    "name": "Ushigoro Ginza Namiki St.",
    "lat": 35.6719436,
    "lng": 139.7621546,
    "cuisine": "Yakiniku",
    "rating": 4.3,
    "price_level": 3,
    "area": "Ginza",
    "google_map_url": "https://www.google.com/maps/place/Ushigoro+Ginza+Namiki+St./@35.6719436,139.7621546,17.73z/data=!3m1!5s0x60188be5f9ab91c3:0x5353fa3a30fa3e87!4m6!3m5!1s0x60188b17e79b1ea3:0xe630951f119ab676!8m2!3d35.6713681!4d139.7627672!16s%2Fg%2F11gl12r6hw?entry=ttu&g_ep=EgoyMDI1MDcxNi4wIKXMDSoASAFQAw%3D%3D"
  },
  {
    "name": "Kuuya",
    "lat": 35.6701721,
    "lng": 139.760553,
    "cuisine": "Japanese confectionery shop",
    "rating": 4.4,
    "price_level": 1,
    "area": "Ginza",
    "google_map_url": "https://www.google.com/maps/place/Kuuya/@35.6701721,139.760553,17.4z/data=!4m6!3m5!1s0x60188be600ebf6a9:0x2448ab9bb752128d!8m2!3d35.6708521!4d139.7627684!16s%2Fg%2F11b6_fkrvq?entry=ttu&g_ep=EgoyMDI1MDcxNi4wIKXMDSoASAFQAw%3D%3D"
  },
  {
    "name": "L’Osier",
    "lat": 35.6703438,
    "lng": 139.7602802,
    "cuisine": "French Restaurant",
    "rating": 4.6,
    "price_level": 3,
    "area": "Ginza",
    "google_map_url": "https://www.google.com/maps/place/L%E2%80%99Osier/@35.6703438,139.7602802,16.94z/data=!3m1!5s0x60188be611a5071d:0xea8cd27374f80ef7!4m6!3m5!1s0x60188be8c9c30407:0x4048650f9af8edea!8m2!3d35.6696475!4d139.7612443!16s%2Fm%2F0h3s9pg?entry=ttu&g_ep=EgoyMDI1MDcxNi4wIKXMDSoASAFQAw%3D%3D"
  },
  {
    "name": "Oborodzuki",
    "lat": 35.6742149,
    "lng": 139.7581656,
    "cuisine": "ramen",
    "rating": 3.9,
    "price_level": 1,
    "area": "Ginza",
    "google_map_url": "https://www.google.com/maps/place/Oborodzuki/@35.6742149,139.7581656,15.82z/data=!3m1!5s0x60188bef3f146e35:0x5876c5ae280fd798!4m6!3m5!1s0x60188bef14cd4cf1:0x4e3b56c474fe7879!8m2!3d35.6712186!4d139.7613528!16s%2Fg%2F12qfm3sl8?entry=ttu&g_ep=EgoyMDI1MDcxNi4wIKXMDSoASAFQAw%3D%3D"
  },
  {
    "name": "Tokyo-Foie Gras",
    "lat": 35.6711491,
    "lng": 139.7608362,
    "cuisine": "French Restaurant",
    "rating": 4.3,
    "price_level": 3,
    "area": "Ginza",
    "google_map_url": "https://www.google.com/maps/place/Tokyo-Foie+Gras/@35.6711491,139.7608362,17.04z/data=!3m1!5s0x60188b8dbaeb57e5:0xf5f16039a89a4155!4m6!3m5!1s0x60188bef2909b4e1:0x8e114992c5bb506c!8m2!3d35.6700943!4d139.7601654!16s%2Fg%2F12qg9s52x?entry=ttu&g_ep=EgoyMDI1MDcxNi4wIKXMDSoASAFQAw%3D%3D"
  },
  {
    "name": "Le Petit Mec Hibiya",
    "lat": 35.6716386,
    "lng": 139.7574296,
    "cuisine": "Bakery",
    "rating": 4.2,
    "price_level": 1,
    "area": "Yurakucho",
    "google_map_url": "https://www.google.com/maps/place/Le+Petit+Mec+Hibiya/@35.6716386,139.7574296,16.1z/data=!3m1!5s0x60188befb536512b:0x4ceb5b05d4156ba0!4m6!3m5!1s0x60188cdbaaf2f8b5:0xa08ea82bfb81c78d!8m2!3d35.6733248!4d139.7601046!16s%2Fg%2F1hc1gfph8?entry=ttu&g_ep=EgoyMDI1MDcxNi4wIKXMDSoASAFQAw%3D%3D"
  },
  {
    "name": "Les Saisons",
    "lat": 35.6721848,
    "lng": 139.7589432,
    "cuisine": "French Restaurant",
    "rating": 4.6,
    "price_level": 3,
    "area": "Uchisaiwaicho",
    "google_map_url": "https://www.google.com/maps/place/Les+Saisons/@35.6721848,139.7589432,17.45z/data=!3m1!5s0x60188bee6dcb1a39:0xae922c2158278911!4m6!3m5!1s0x60188bee5d15bc4f:0x5f25833275571e7!8m2!3d35.6724056!4d139.7583398!16s%2Fg%2F11c6065g65?entry=ttu&g_ep=EgoyMDI1MDcxNi4wIKXMDSoASAFQAw%3D%3D"
  },
  {
    "name": "Hibiya Hayashiya Shinbe",
    "lat": 35.6730505,
    "lng": 139.7590547,
    "cuisine": "Cafe",
    "rating": 4.2,
    "price_level": 1,
    "area": "Yurakucho",
    "google_map_url": "https://www.google.com/maps/place/Hibiya+Hayashiya+Shinbe/@35.6730505,139.7590547,18.66z/data=!3m1!5s0x60188bee2f34602d:0xa0e06d312f81e0c1!4m6!3m5!1s0x60188bee240f92b1:0x2394150c4f1fea44!8m2!3d35.6737436!4d139.7591762!16s%2Fg%2F11ggt53mrx?entry=ttu&g_ep=EgoyMDI1MDcxNi4wIKXMDSoASAFQAw%3D%3D"
  },
  {
    "name": "SALONE TOKYO",
    "lat": 35.6747179,
    "lng": 139.7606278,
    "cuisine": "Italian Restaurant",
    "rating": 4.3,
    "price_level": 3,
    "area": "Yurakucho",
    "google_map_url": "https://www.google.com/maps/place/SALONE+TOKYO/@35.6747179,139.7606278,17.51z/data=!4m6!3m5!1s0x60188bee248ef3ab:0x4ec90dff11daf6d1!8m2!3d35.6739622!4d139.7596299!16s%2Fg%2F11f55g7yyj?entry=ttu&g_ep=EgoyMDI1MDcxNi4wIKXMDSoASAFQAw%3D%3D"
  },
  {
    "name": "The Peninsula Boutique & Café",
    "lat": 35.6765214,
    "lng": 139.7620512,
    "cuisine": "cafe",
    "rating": 4.2,
    "price_level": 2,
    "area": "Yurakucho",
    "google_map_url": "https://www.google.com/maps/place/The+Peninsula+Boutique+%26+Caf%C3%A9/@35.6765214,139.7620512,16.69z/data=!3m1!5s0x60188bf028250d2d:0x3bfd5937fa516708!4m6!3m5!1s0x60188bf0286a91e7:0xa079a53906a83b63!8m2!3d35.6747224!4d139.7606781!16s%2Fg%2F1vbl7kyr?entry=ttu&g_ep=EgoyMDI1MDcxNi4wIKXMDSoASAFQAw%3D%3D"
  },
  {
    "name": "La Maison du Chocolat Marunouchi",
    "lat": 35.6765214,
    "lng": 139.762051,
    "cuisine": "chocolate shop",
    "rating": 4.4,
    "price_level": 1,
    "area": "Marunouchi",
    "google_map_url": "https://www.google.com/maps/place/La+Maison+du+Chocolat+Marunouchi/@35.6765214,139.7620512,16.69z/data=!4m6!3m5!1s0x60188bf9b0d878ef:0xc00f556939c00c33!8m2!3d35.6761778!4d139.76196!16s%2Fg%2F1tfdyvjw?entry=ttu&g_ep=EgoyMDI1MDcxNi4wIKXMDSoASAFQAw%3D%3D"
  },
  {
    "name": "YAUMAY",
    "lat": 35.6776746,
    "lng": 139.7628766,
    "cuisine": "Dimsum Restaurant",
    "rating": 4.3,
    "price_level": 2,
    "area": "Marunouchi",
    "google_map_url": "https://www.google.com/maps/place/YAUMAY/@35.6776746,139.7628766,17.15z/data=!3m1!5s0x60188bf092d78f21:0x9ec0a06076c0c361!4m6!3m5!1s0x60188bc8d57f842d:0x1f21a158d1415fc8!8m2!3d35.6776993!4d139.7617349!16s%2Fg%2F11gsly2jww?entry=ttu&g_ep=EgoyMDI1MDcxNi4wIKXMDSoASAFQAw%3D%3D"
  },
  {
    "name": "La Boutique de Joël Robuchon Marunouchi Brick Square Branch",
    "lat": 35.6776746,
    "lng": 139.7628766,
    "cuisine": "bakery",
    "rating": 3.7,
    "price_level": 1,
    "area": "Marunouchi",
    "google_map_url": "https://www.google.com/maps/place/La+Boutique+de+Jo%C3%ABl+Robuchon+Marunouchi+Brick+Square+Branch/@35.6776746,139.7628766,17.15z/data=!3m1!5s0x60188bfa73c23fad:0x541df7ffbc26b992!4m6!3m5!1s0x60188bfa0cd1027b:0xf77013a6e00851c2!8m2!3d35.6783755!4d139.7625755!16s%2Fg%2F1v75rx9p?entry=ttu&g_ep=EgoyMDI1MDcxNi4wIKXMDSoASAFQAw%3D%3D"
  },
  {
    "name": "Cacao Sampaka",
    "lat": 35.6781222,
    "lng": 139.762779,
    "cuisine": "Chocolate Shop",
    "rating": 4.2,
    "price_level": 1,
    "area": "Marunouchi",
    "google_map_url": "https://www.google.com/maps/place/Cacao+Sampaka/@35.6781222,139.762779,18.58z/data=!3m1!5s0x60188bfa73c23fad:0x541df7ffbc26b992!4m6!3m5!1s0x60188bfa0cd1027b:0xe30f7d1072a6b5f8!8m2!3d35.6786357!4d139.7625162!16s%2Fg%2F1tfv0jkm?entry=ttu&g_ep=EgoyMDI1MDcxNi4wIKXMDSoASAFQAw%3D%3D"
  },
  {
    "name": "Echiré Maison du Beurre Marunouchi Store",
    "lat": 35.6781222,
    "lng": 139.762779,
    "cuisine": "Patisserie",
    "rating": 4.0,
    "price_level": 1,
    "area": "Marunouchi",
    "google_map_url": "https://www.google.com/maps/place/Echir%C3%A9+Maison+du+Beurre+Marunouchi+Store/@35.6781222,139.762779,18.58z/data=!3m1!5s0x60188bfa73c23fad:0x541df7ffbc26b992!4m6!3m5!1s0x60188bfa0d273fe9:0xc0aab5e8979d0d8!8m2!3d35.6785703!4d139.7625325!16s%2Fg%2F1tql4s3q?entry=ttu&g_ep=EgoyMDI1MDcxNi4wIKXMDSoASAFQAw%3D%3D"
  },
  {
    "name": "Menya Hyottoko Yurakucho",
    "lat": 35.678278,
    "lng": 139.7621962,
    "cuisine": "ramen",
    "rating": 4.2,
    "price_level": 1,
    "area": "Yurakucho",
    "google_map_url": "https://www.google.com/maps/place/Menya+Hyottoko+Yurakucho/@35.678278,139.7621962,16.44z/data=!3m1!5s0x60188be53d8ad29d:0x2860ae5e8e104f68!4m6!3m5!1s0x60188be53d8f6d49:0x312d1474b09adce2!8m2!3d35.6751588!4d139.7643755!16s%2Fg%2F1tdy9192?entry=ttu&g_ep=EgoyMDI1MDcxNi4wIKXMDSoASAFQAw%3D%3D"
  },
  {
    "name": "Okonomiyaki Kiji",
    "lat": 35.679391,
    "lng": 139.7641573,
    "cuisine": "okonomiyaki",
    "rating": 4.2,
    "price_level": 1,
    "area": "Marunouchi",
    "google_map_url": "https://www.google.com/maps/place/Okonomiyaki+Kiji/@35.679391,139.7641573,16.98z/data=!3m1!5s0x60188bfaff33b261:0x1adfae2cf2bd2570!4m6!3m5!1s0x60188bfaf8823531:0xbf1285615202b70b!8m2!3d35.6784444!4d139.7650861!16s%2Fg%2F1tdzwq5t?entry=ttu&g_ep=EgoyMDI1MDcxNi4wIKXMDSoASAFQAw%3D%3D"
  },
  {
    "name": "SÉZANNE",
    "lat": 35.6791119,
    "lng": 139.7643524,
    "cuisine": "French Restaurant",
    "rating": 4.3,
    "price_level": 3,
    "area": "Marunouchi",
    "google_map_url": "https://www.google.com/maps/place/S%C3%89ZANNE/@35.6778788,139.7673659,17z/data=!3m1!5s0x60188bfbe9ba753f:0xdb78b1e2c064470!4m6!3m5!1s0x60188befb4c989fb:0x880f941eb3c4402e!8m2!3d35.6780884!4d139.7668704!16s%2Fg%2F11nh4wmj3d?entry=ttu&g_ep=EgoyMDI1MDcxNi4wIKXMDSoASAFQAw%3D%3D"
  },
  {
    "name": "Brasserie Viron Marunouchi",
    "lat": 35.677977,
    "lng": 139.7665704,
    "cuisine": "Brasserie",
    "rating": 4,
    "price_level": 1,
    "area": "Marunouchi",
    "google_map_url": "https://www.google.com/maps/place/Brasserie+Viron+Marunouchi/@35.6788812,139.7645227,16.87z/data=!3m1!5s0x60188bfaff33b261:0x357d96add1b9ff5a!4m6!3m5!1s0x60188bfaf8823531:0xb50d3700edc9e0ac!8m2!3d35.6786617!4d139.7651715!16s%2Fg%2F1thd1szj?entry=ttu&g_ep=EgoyMDI1MDcxNi4wIKXMDSoASAFQAw%3D%3D"
  },
  {
    "name": "Matsudo Tomita Memban",
    "lat": 35.6797189,
    "lng": 139.7656043,
    "cuisine": "tsukemen",
    "rating": 3.9,
    "price_level": 1,
    "area": "Marunouchi",
    "google_map_url": "https://www.google.com/maps/place/Matsudo+Tomita+Memban/@35.6797189,139.7656043,16z/data=!3m1!5s0x60188bfbd91993eb:0x73e0693562fc525a!4m6!3m5!1s0x60188b931fc57e3f:0x4a447295769ac821!8m2!3d35.6795647!4d139.7652707!16s%2Fg%2F11fjz8z8pb?entry=ttu&g_ep=EgoyMDI1MDcxNi4wIKXMDSoASAFQAw%3D%3D"
  },
  {
    "name": "Rokurinsha",
    "lat": 35.6801853,
    "lng": 139.7656481,
    "cuisine": "ramen",
    "rating": 4.1,
    "price_level": 1,
    "area": "Marunouchi",
    "google_map_url": "https://www.google.com/maps/place/Rokurinsha/@35.6801853,139.7656481,16.78z/data=!3m1!5s0x60188bfbd91993eb:0x73e0693562fc525a!4m6!3m5!1s0x60188bfeba8313b7:0x9a9993c592e5429c!8m2!3d35.6800519!4d139.7678455!16s%2Fg%2F1thlzfdx?entry=ttu&g_ep=EgoyMDI1MDcxNi4wIKXMDSoASAFQAw%3D%3D"
  },
  {
    "name": "TORAYA TOKYO",
    "lat": 35.6804018,
    "lng": 139.7650396,
    "cuisine": "Japanese Sweets Restaurant",
    "rating": 4.3,
    "price_level": 2,
    "area": "Marunouchi",
    "google_map_url": "https://www.google.com/maps/place/TORAYA+TOKYO/@35.6804018,139.7650396,16.52z/data=!3m1!5s0x60188bfbd84c8649:0x4ceb5b051212b675!4m6!3m5!1s0x60188bfbce5cce17:0xe63f951eb475fd46!8m2!3d35.6809848!4d139.7659!16s%2Fg%2F1hf6tfd4p?entry=ttu&g_ep=EgoyMDI1MDcxNi4wIKXMDSoASAFQAw%3D%3D"
  },
  {
    "name": "Chocolatier Palet D'or Tokyo",
    "lat": 35.6806073,
    "lng": 139.7627928,
    "cuisine": "Chocolate Shop",
    "rating": 4.2,
    "price_level": 1,
    "area": "Marunouchi",
    "google_map_url": "https://www.google.com/maps/place/Chocolatier+Palet+D'or+Tokyo/@35.6806073,139.7627928,16.33z/data=!3m1!5s0x60188bf9b158dbad:0x666f667c6ba0570e!4m6!3m5!1s0x60188bf9b3e08c37:0x4bb1aa8c1c32a55e!8m2!3d35.6827314!4d139.7639987!16s%2Fg%2F1tc_4297?entry=ttu&g_ep=EgoyMDI1MDcxNi4wIKXMDSoASAFQAw%3D%3D"
  },
  {
    "name": "Amber Palace",
    "lat": 35.6856598,
    "lng": 139.7739414,
    "cuisine": "Chinese Restaurant",
    "rating": 4.5,
    "price_level": 3,
    "area": "Marunouchi",
    "google_map_url": "https://www.google.com/maps/place/Amber+Palace/@35.6856598,139.7739414,15.29z/data=!3m1!5s0x60188c0822c2e72d:0xe2bb2d9fdb7cdcab!4m6!3m5!1s0x60188c08058b7d75:0x29eb427fd7d5d4!8m2!3d35.6845001!4d139.7612211!16s%2Fg%2F1hd_7wl46?entry=ttu&g_ep=EgoyMDI1MDcxNi4wIKXMDSoASAFQAw%3D%3D"
  },
  {
    "name": "Chez Inno",
    "lat": 35.6773161,
    "lng": 139.7693338,
    "cuisine": "French Restaurant",
    "rating": 4.6,
    "price_level": 3,
    "area": "Kyobashi",
    "google_map_url": "https://www.google.com/maps/place/Chez+Inno/@35.6773161,139.7693338,15.96z/data=!4m6!3m5!1s0x60188be340168b27:0x21e34f8a0335735b!8m2!3d35.6768688!4d139.7688228!16s%2Fg%2F1tgnrngy?entry=ttu&g_ep=EgoyMDI1MDcxNi4wIKXMDSoASAFQAw%3D%3D"
  },
  {
    "name": "3rd Street Curry Restaurant",
    "lat": 35.6773161,
    "lng": 139.7693338,
    "cuisine": "curry",
    "rating": 4.2,
    "price_level": 1,
    "area": "Kyobashi",
    "google_map_url": "https://www.google.com/maps/place/3rd+Street+Curry+Restaurant/@35.6773161,139.7693338,15.96z/data=!3m1!5s0x60188be23125a241:0x9ce6f68a51947956!4m6!3m5!1s0x60188be2312c16b3:0x47bd6501d6d4d01f!8m2!3d35.67491!4d139.7707712!16s%2Fg%2F1tgqjdsd?entry=ttu&g_ep=EgoyMDI1MDcxNi4wIKXMDSoASAFQAw%3D%3D"
  },
  {
    "name": "Sakaki",
    "lat": 35.6773161,
    "lng": 139.7693338,
    "cuisine": "Japanese Western",
    "rating": 4.3,
    "price_level": 1,
    "area": "Kyobashi",
    "google_map_url": "https://www.google.com/maps/place/Sakaki/@35.6773161,139.7693338,15.96z/data=!3m1!5s0x60188be242ecc6b3:0x4dd011002c2ce338!4m6!3m5!1s0x60188be242e36573:0xbd1ad033c8489cfd!8m2!3d35.6760114!4d139.7714728!16s%2Fg%2F1tfhgdjn?entry=ttu&g_ep=EgoyMDI1MDcxNi4wIKXMDSoASAFQAw%3D%3D"
  },
  {
    "name": "Rodin",
    "lat": 35.6773161,
    "lng": 139.7693338,
    "cuisine": "curry",
    "rating": 4.1,
    "price_level": 1,
    "area": "Hatchobori",
    "google_map_url": "https://www.google.com/maps/place/Rodin/@35.6773161,139.7693338,15.96z/data=!4m6!3m5!1s0x6018895f2d7e7023:0x5dbcdcfbf1af0311!8m2!3d35.6756339!4d139.7748337!16s%2Fg%2F1tf7mk07?entry=ttu&g_ep=EgoyMDI1MDcxNi4wIKXMDSoASAFQAw%3D%3D"
  },
  {
    "name": "Japanese Spice Curry Wacca",
    "lat": 35.6778251,
    "lng": 139.7706072,
    "cuisine": "curry",
    "rating": 4.1,
    "price_level": 1,
    "area": "Hatchobori",
    "google_map_url": "https://www.google.com/maps/place/Japanese+Spice+Curry+Wacca/@35.6778251,139.7706072,15.58z/data=!3m1!5s0x6018895ecf029a49:0xefc0217fffee6a96!4m6!3m5!1s0x6018898a2ffda6f3:0xd4f67176b1824518!8m2!3d35.6758783!4d139.7762437!16s%2Fg%2F11n06k355n?entry=ttu&g_ep=EgoyMDI1MDcxNi4wIKXMDSoASAFQAw%3D%3D"
  },
  {
    "name": "Menya Shichisai",
    "lat": 35.6778251,
    "lng": 139.7706072,
    "cuisine": "ramen",
    "rating": 4.0,
    "price_level": 1,
    "area": "Hatchobori",
    "google_map_url": "https://www.google.com/maps/place/Menya+Shichisai/@35.6785407,139.7783528,16.65z/data=!4m6!3m5!1s0x601889593c6bee93:0xeabf8cc6c7f33c2d!8m2!3d35.6771772!4d139.7763297!16s%2Fg%2F11b8jcyz4_?entry=ttu&g_ep=EgoyMDI1MDcxNi4wIKXMDSoASAFQAw%3D%3D"
  },
  {
    "name": "Suikodo",
    "lat": 35.6790401,
    "lng": 139.777566,
    "cuisine": "Japanese Sweets Restaurant",
    "rating": 4.5,
    "price_level": 1,
    "area": "Shinkawa",
    "google_map_url": "https://www.google.com/maps/place/Suikodo/@35.6790401,139.777566,16.25z/data=!4m6!3m5!1s0x6018895d4101b6bf:0xa27871db9651e53c!8m2!3d35.674992!4d139.781994!16s%2Fg%2F1thsrc83?entry=ttu&g_ep=EgoyMDI1MDcxNi4wIKXMDSoASAFQAw%3D%3D"
  },
  {
    "name": "Nihonbashi Kaisen Donburi Tsujihan Nihonbashi",
    "lat": 35.6825893,
    "lng": 139.7722736,
    "cuisine": "Seafood Donbori Restaurant",
    "rating": 4.4,
    "price_level": 2,
    "area": "Nihonbashi",
    "google_map_url": "https://www.google.com/maps/place/Nihonbashi+Kaisen+Donburi+Tsujihan+Nihonbashi/@35.6825893,139.7722736,16.13z/data=!3m1!5s0x60188bfd72abb3a5:0x423f058e46a25cfe!4m6!3m5!1s0x60188bfd0d57e253:0x211fa4fa71a7c61e!8m2!3d35.6807167!4d139.7715771!16s%2Fg%2F1hf6rm299?entry=ttu&g_ep=EgoyMDI1MDcxNi4wIKXMDSoASAFQAw%3D%3D"
  },
  {
    "name": "Nihonbashi Nagato",
    "lat": 35.6841077,
    "lng": 139.7712802,
    "cuisine": "Japanese confectionery shop",
    "rating": 4.4,
    "price_level": 1,
    "area": "Nihonbashi",
    "google_map_url": "https://www.google.com/maps/place/Nihonbashi+Nagato/@35.6841077,139.7712802,16.14z/data=!4m6!3m5!1s0x60188bfd735c2483:0xc8e777ec5caf294d!8m2!3d35.6810642!4d139.7716235!16s%2Fg%2F1tf07nnq?entry=ttu&g_ep=EgoyMDI1MDcxNi4wIKXMDSoASAFQAw%3D%3D"
  },
  {
    "name": "Usagiya",
    "lat": 35.6841077,
    "lng": 139.7712802,
    "cuisine": "Japanese confectionery shop",
    "rating": 4.4,
    "price_level": 1,
    "area": "Nihonbashi",
    "google_map_url": "https://www.google.com/maps/place/Usagiya/@35.6841077,139.7712802,16.14z/data=!3m1!5s0x601889563bc3f3b3:0xe8f5ef14fe5d2952!4m6!3m5!1s0x60188bfdf80ead19:0x2e4354c4fa30310d!8m2!3d35.6829537!4d139.773713!16s%2Fg%2F1thtpldb?entry=ttu&g_ep=EgoyMDI1MDcxNi4wIKXMDSoASAFQAw%3D%3D"
  },
  {
    "name": "Usagiya Nihonbashi",
    "lat": 35.686649,
    "lng": 139.7693715,
    "cuisine": "Japanese confectionery shop",
    "rating": 4.3,
    "price_level": 1,
    "area": "Nihonbashi",
    "google_map_url": "https://www.google.com/maps/place/Usagiya+Nihonbashi/@35.6835448,139.7702109,17z/data=!3m2!4b1!5s0x6018895602b206c7:0x3c2c414f1ebb8ca1!4m6!3m5!1s0x60188bfdf80ead19:0x77ebd9343b0939d5!8m2!3d35.6835405!4d139.7727858!16s%2Fg%2F1ptvs1002?entry=ttu&g_ep=EgoyMDI1MDcyMi4wIKXMDSoASAFQAw%3D%3D"
  },
  {
    "name": "Club Harie Nihombashi Mitsukoshi Store",
    "lat": 35.6845739,
    "lng": 139.7751117,
    "cuisine": "Confectionery store",
    "rating": 4.2,
    "price_level": 1,
    "area": "Nihonbashi",
    "google_map_url": "https://www.google.com/maps/place/Club+Harie+Nihombashi+Mitsukoshi+Store/@35.6845739,139.7751117,16.44z/data=!3m1!5s0x601889554019ece1:0x1426b205accf5186!4m6!3m5!1s0x601889558bea7489:0x27267e420347a20a!8m2!3d35.6851698!4d139.7740283!16s%2Fg%2F1v_w2bn4?entry=ttu&g_ep=EgoyMDI1MDcxNi4wIKXMDSoASAFQAw%3D%3D"
  },
  {
    "name": "La Paix Nihonbashi",
    "lat": 35.6870896,
    "lng": 139.7775043,
    "cuisine": "French Restaurant",
    "rating": 4.5,
    "price_level": 3,
    "area": "Nihonbashi",
    "google_map_url": "https://www.google.com/maps/place/La+Paix+Nihonbashi/@35.6870896,139.7775043,15.74z/data=!3m1!5s0x60188956804f13fb:0xd70692b208785189!4m6!3m5!1s0x60188956804dd5e9:0xd411ff45783d867b!8m2!3d35.6850961!4d139.7755719!16s%2Fg%2F11c0vylsf5?entry=ttu&g_ep=EgoyMDI1MDcxNi4wIKXMDSoASAFQAw%3D%3D"
  },
  {
    "name": "Asahina Gastronome",
    "lat": 35.6837741,
    "lng": 139.7829084,
    "cuisine": "French Restaurant",
    "rating": 4.7,
    "price_level": 3,
    "area": "Nihonbashi",
    "google_map_url": "https://www.google.com/maps/place/Asahina+Gastronome/@35.6837741,139.7829084,16.52z/data=!4m6!3m5!1s0x601889d111c281f3:0x387e66896c8283b7!8m2!3d35.6827081!4d139.7793239!16s%2Fg%2F11g4f260m7?entry=ttu&g_ep=EgoyMDI1MDcxNi4wIKXMDSoASAFQAw%3D%3D"
  },
  {
    "name": "Nihombashi Kakigaracho Sugita",
    "lat": 35.6837741,
    "lng": 139.7829084,
    "cuisine": "sushi",
    "rating": 4.6,
    "price_level": 3,
    "area": "Nihonbashi",
    "google_map_url": "https://www.google.com/maps/place/Nihombashi+Kakigaracho+Sugita/@35.6837741,139.7829084,16.52z/data=!3m1!5s0x60188944e34c41b9:0xdc6fd85ef6ae45b2!4m6!3m5!1s0x60188944e34c0001:0xdccacbe0840f113!8m2!3d35.6819299!4d139.7849207!16s%2Fg%2F11bwt4vn9b?entry=ttu&g_ep=EgoyMDI1MDcxNi4wIKXMDSoASAFQAw%3D%3D"
  },
  {
    "name": "クラブハリエ 水天宮前店",
    "lat": 35.6837741,
    "lng": 139.7829084,
    "cuisine": "Pastry",
    "rating": 4.2,
    "price_level": 1,
    "area": "Nihonbashi",
    "google_map_url": "https://www.google.com/maps/place/%E3%82%AF%E3%83%A9%E3%83%96%E3%83%8F%E3%83%AA%E3%82%A8+%E6%B0%B4%E5%A4%A9%E5%AE%AE%E5%89%8D%E5%BA%97/@35.6837741,139.7829084,16.52z/data=!4m6!3m5!1s0x60188945690e6561:0xee9b85c30f114f38!8m2!3d35.6834623!4d139.7845633!16s%2Fg%2F11bbx1bzyl?entry=ttu&g_ep=EgoyMDI1MDcxNi4wIKXMDSoASAFQAw%3D%3D"
  },
  {
    "name": "Yanagiya Taiyaki",
    "lat": 35.6851711,
    "lng": 139.7789605,
    "cuisine": "Japanese confectionery shop",
    "rating": 4.3,
    "price_level": 1,
    "area": "Nihonbashi",
    "google_map_url": "https://www.google.com/maps/place/Yanagiya+Taiyaki/@35.6851711,139.7789605,16.24z/data=!4m6!3m5!1s0x6018894fc15c2767:0x3c0e27c99b245b36!8m2!3d35.6853863!4d139.7840158!16s%2Fg%2F1tsr35pr?entry=ttu&g_ep=EgoyMDI1MDcxNi4wIKXMDSoASAFQAw%3D%3D"
  },
  {
    "name": "Sucre-rie",
    "lat": 35.6873512,
    "lng": 139.776412,
    "cuisine": "Cake shop",
    "rating": 4.2,
    "price_level": 1,
    "area": "Nihonbashi",
    "google_map_url": "https://www.google.com/maps/place/Sucre-rie/@35.6873512,139.776412,16.55z/data=!4m6!3m5!1s0x60188951b4b69efd:0x53733b4b3932d42c!8m2!3d35.6852766!4d139.7815514!16s%2Fg%2F1tm0t44_?entry=ttu&g_ep=EgoyMDI1MDcxNi4wIKXMDSoASAFQAw%3D%3D"
  },
  {
    "name": "Katsuyoshi Nihonbashi Ningyōchō",
    "lat": 35.6873512,
    "lng": 139.776412,
    "cuisine": "Tonkatsu",
    "rating": 4.4,
    "price_level": 2,
    "area": "Nihonbashi",
    "google_map_url": "https://www.google.com/maps/place/Katsuyoshi+Nihonbashi+Ningy%C5%8Dch%C5%8D/@35.6873512,139.776412,16.55z/data=!4m6!3m5!1s0x60188951bd367391:0xd5d7a3293b09bb21!8m2!3d35.686228!4d139.781205!16s%2Fg%2F11c5s8w4b7?entry=ttu&g_ep=EgoyMDI1MDcxNi4wIKXMDSoASAFQAw%3D%3D"
  },
  {
    "name": "Honnoen",
    "lat": 35.6873273,
    "lng": 139.7767207,
    "cuisine": "yakiniku",
    "rating": 4.3,
    "price_level": 2,
    "area": "Nihonbashi",
    "google_map_url": "https://www.google.com/maps/place/Honnoen/@35.6873273,139.7767207,17z/data=!4m6!3m5!1s0x60188953d9ed7f59:0xf53e030485e408c9!8m2!3d35.6871543!4d139.7798354!16s%2Fg%2F11clh1lk2g?entry=ttu&g_ep=EgoyMDI1MDcxNi4wIKXMDSoASAFQAw%3D%3D"
  },
  {
    "name": "Seijuken",
    "lat": 35.6873273,
    "lng": 139.7767207,
    "cuisine": "Japanese confectionery shop",
    "rating": 4.3,
    "price_level": 1,
    "area": "Nihonbashi",
    "google_map_url": "https://www.google.com/maps/place/Seijuken/@35.6873273,139.7767207,17z/data=!3m1!5s0x60188953be56a0cb:0x7be6c3674e016610!4m6!3m5!1s0x6018895164a308bd:0x8b168c3bab65f372!8m2!3d35.6880039!4d139.7794307!16s%2Fg%2F11cjgdw3pm?entry=ttu&g_ep=EgoyMDI1MDcyMC4wIKXMDSoASAFQAw%3D%3D"
  },
  {
    "name": "Yakiniku Itadaki",
    "lat": 35.6883334,
    "lng": 139.7775436,
    "cuisine": "Yakiniku",
    "rating": 4.7,
    "price_level": 3,
    "area": "Nihonbashi",
    "google_map_url": "https://www.google.com/maps/place/Yakiniku+Itadaki/@35.6883334,139.7775436,16.64z/data=!3m1!5s0x601889526fe9677f:0xf4d7151f173a3e50!4m14!1m7!3m6!1s0x6018895164a308bd:0x8b168c3bab65f372!2sSeijuken!8m2!3d35.6880039!4d139.7794307!16s%2Fg%2F11cjgdw3pm!3m5!1s0x601889526f8a45cb:0x15896d4aa561121a!8m2!3d35.6896204!4d139.782362!16s%2Fg%2F1tgnx5_9?entry=ttu&g_ep=EgoyMDI1MDcyMC4wIKXMDSoASAFQAw%3D%3D"
  },
  {
    "name": "Tempura Meshi Kaneko Hannosuke Nihombashi",
    "lat": 35.6881095,
    "lng": 139.7718743,
    "cuisine": "Tempura",
    "rating": 4.2,
    "price_level": 1,
    "area": "Nihonbashi",
    "google_map_url": "https://www.google.com/maps/place/Tempura+Meshi+Kaneko+Hannosuke+Nihombashi/@35.6881095,139.7718743,16.21z/data=!3m1!5s0x6018895435d19861:0xee339f1a337d3773!4m6!3m5!1s0x6018895435c5f7ff:0x51ee2674c996f3a0!8m2!3d35.6863218!4d139.7757679!16s%2Fg%2F11bxjgnx5w?entry=ttu&g_ep=EgoyMDI1MDcyMC4wIKXMDSoASAFQAw%3D%3D"
  },
  {
    "name": "The Pizza Bar On 38th",
    "lat": 35.6869921,
    "lng": 139.7744209,
    "cuisine": "Italian Restaurant",
    "rating": 4.4,
    "price_level": 2,
    "area": "Nihonbashi",
    "google_map_url": "https://www.google.com/maps/place/The+Pizza+Bar+On+38th/@35.6869921,139.7744209,16.37z/data=!3m1!5s0x601889557c5c4279:0x4cc4a286a779bf08!4m6!3m5!1s0x6018895562e77a3b:0xe3c077a9dbbe0dcd!8m2!3d35.6869744!4d139.7730333!16s%2Fg%2F11bv388ygx?entry=ttu&g_ep=EgoyMDI1MDcyMC4wIKXMDSoASAFQAw%3D%3D"
  },
  {
    "name": "The Mandarin Oriental Gourmet Shop",
    "lat": 35.6869993,
    "lng": 139.7737551,
    "cuisine": "Bakery",
    "rating": 4.2,
    "price_level": 1,
    "area": "Nihonbashi",
    "google_map_url": "https://www.google.com/maps/place/The+Mandarin+Oriental+Gourmet+Shop/@35.6867999,139.7704065,17z/data=!3m2!4b1!5s0x601889557c5c4279:0x4cc4a286a779bf08!4m6!3m5!1s0x60188955795f1ccd:0xd68d30b6df1154ba!8m2!3d35.6867956!4d139.7729814!16s%2Fg%2F11g6j7r7d6?entry=ttu&g_ep=EgoyMDI1MDcyMi4wIKXMDSoASAFQAw%3D%3D"
  },
  {
    "name": "la cocina de acá 1°",
    "lat": 35.6898303,
    "lng": 139.7695457,
    "cuisine": "Spanish",
    "rating": 4.7,
    "price_level": 3,
    "area": "Nihonbashi",
    "google_map_url": "https://www.google.com/maps/place/la+cocina+de+ac%C3%A1+1%C2%B0/@35.6898303,139.7695457,15.99z/data=!3m1!5s0x6018895562ab5417:0xddbe90d14842fa7b!4m6!3m5!1s0x60188bcbe8a02f7f:0x7003ac43e70537d2!8m2!3d35.686865!4d139.7723438!16s%2Fg%2F11bbx01t9w?entry=ttu&g_ep=EgoyMDI1MDcyMC4wIKXMDSoASAFQAw%3D%3D"
  },
  {
    "name": "葡萄舎",
    "lat": 35.6898303,
    "lng": 139.7695457,
    "cuisine": "curry",
    "rating": 4.2,
    "price_level": 1,
    "area": "Nihonbashi",
    "google_map_url": "https://www.google.com/maps/place/%E8%91%A1%E8%90%84%E8%88%8E/@35.6898303,139.7695457,15.99z/data=!3m1!5s0x60188c0051744993:0x33f476de26455c5d!4m6!3m5!1s0x60188c0051704dfd:0x772722cb0007af15!8m2!3d35.6898491!4d139.7707919!16s%2Fg%2F1tcvj26k?entry=ttu&g_ep=EgoyMDI1MDcyMC4wIKXMDSoASAFQAw%3D%3D"
  },
  {
    "name": "三馬路 東京店",
    "lat": 35.6903891,
    "lng": 139.7637528,
    "cuisine": "ramen",
    "rating": 4.2,
    "price_level": 1,
    "area": "Uchikanda",
    "google_map_url": "https://www.google.com/maps/place/%E4%B8%89%E9%A6%AC%E8%B7%AF+%E6%9D%B1%E4%BA%AC%E5%BA%97/@35.6629678,139.7548788,16.46z/data=!3m1!5s0x60188c01511782eb:0x36e652ec4840b3c!4m6!3m5!1s0x60188db948a08971:0x37b9306e739b52d1!8m2!3d35.691052!4d139.768203!16s%2Fg%2F11rkctgqxy?entry=ttu&g_ep=EgoyMDI1MDcyMC4wIKXMDSoASAFQAw%3D%3D"
  },
  {
    "name": "Kusamakura",
    "lat": 35.6660475,
    "lng": 139.7562916,
    "cuisine": "Coffee shop",
    "rating": 4.5,
    "price_level": 1,
    "area": "Nishishinbashi",
    "google_map_url": "https://www.google.com/maps/place/Kusamakura/@35.6660475,139.7562916,16.28z/data=!3m1!5s0x60188becd6efa45d:0x86772638c4870d62!4m6!3m5!1s0x60188becd6ea21e9:0x4271d14c5213040c!8m2!3d35.6690348!4d139.7528787!16s%2Fg%2F1tftf9bl?entry=ttu&g_ep=EgoyMDI1MDcyMC4wIKXMDSoASAFQAw%3D%3D"
  },
  {
    "name": "Syoutaien Shinbashi Store",
    "lat": 35.6669728,
    "lng": 139.7537155,
    "cuisine": "yakiniku",
    "rating": 4.0,
    "price_level": 2,
    "area": "Shinbashi",
    "google_map_url": "https://www.google.com/maps/place/Syoutaien+Shinbashi+Store/@35.6669728,139.7537155,17z/data=!3m1!5s0x60188beb8f78e753:0xe6670ead19939c0e!4m6!3m5!1s0x60188beb8f909799:0x2d158c45bb5bf9f2!8m2!3d35.667614!4d139.7556594!16s%2Fg%2F1hc32b43w?entry=ttu&g_ep=EgoyMDI1MDcyMC4wIKXMDSoASAFQAw%3D%3D"
  },
  {
    "name": "Hirosaku",
    "lat": 35.6666241,
    "lng": 139.7547347,
    "cuisine": "Japanese Restaurant",
    "rating": 4.5,
    "price_level": 2,
    "area": "Shinbashi",
    "google_map_url": "https://www.google.com/maps/place/Hirosaku/@35.6662613,139.7551339,17z/data=!3m1!5s0x60188beba64f77a9:0x30e1ad725f6d9294!4m6!3m5!1s0x60188beba651bfbb:0xc2e33a695bc987cf!8m2!3d35.6662255!4d139.7551709!16s%2Fg%2F1tjdwx7f?entry=ttu&g_ep=EgoyMDI1MDcyMC4wIKXMDSoASAFQAw%3D%3D"
  },
  {
    "name": "Matoi",
    "lat": 35.6662613,
    "lng": 139.7551339,
    "cuisine": "Ramen",
    "rating": 4.1,
    "price_level": 1,
    "area": "Shinbashi",
    "google_map_url": "https://www.google.com/maps/place/Matoi/@35.6662613,139.7551339,17z/data=!3m1!5s0x60188bea35817e09:0x7dd4f21926d8aa32!4m6!3m5!1s0x60188bea35890595:0x122e05e9a6a9ce62!8m2!3d35.6657726!4d139.7562741!16s%2Fg%2F11b6gspqlp?entry=ttu&g_ep=EgoyMDI1MDcyMC4wIKXMDSoASAFQAw%3D%3D"
  },
  {
    "name": "OGAWAKEN",
    "lat": 35.6662875,
    "lng": 139.7564193,
    "cuisine": "pastry shop",
    "rating": 4.3,
    "price_level": 1,
    "area": "Shinbashi",
    "google_map_url": "https://www.google.com/maps/place/OGAWAKEN/@35.6662875,139.7564193,17.59z/data=!3m1!5s0x60188c7e91a5dbd9:0x45b56203f69193db!4m6!3m5!1s0x60188be9b6536139:0x6697b2988cc0e0b5!8m2!3d35.6662613!4d139.7597472!16s%2Fg%2F1th63cf6?entry=ttu&g_ep=EgoyMDI1MDcyMC4wIKXMDSoASAFQAw%3D%3D"
  },
  {
    "name": "HARU CHAN Ramen",
    "lat": 35.6655503,
    "lng": 139.7580408,
    "cuisine": "ramen",
    "rating": 4.1,
    "price_level": 1,
    "area": "Shinbashi",
    "google_map_url": "https://www.google.com/maps/place/HARU+CHAN+Ramen/@35.6655503,139.7580408,17.1z/data=!3m1!5s0x60188c7e91a5dbd9:0x45b56203f69193db!4m6!3m5!1s0x60188b4fa081fda9:0x6789bbc8d62f06b1!8m2!3d35.6662135!4d139.7595377!16s%2Fg%2F11qg41v491?entry=ttu&g_ep=EgoyMDI1MDcyMC4wIKXMDSoASAFQAw%3D%3D"
  },
  {
    "name": "Pont Neuf",
    "lat": 35.6655503,
    "lng": 139.7580408,
    "cuisine": "Japanese Western",
    "rating": 4,
    "price_level": 1,
    "area": "Shinbashi",
    "google_map_url": "https://www.google.com/maps/place/Pont+Neuf/@35.6655503,139.7580408,17.1z/data=!3m1!5s0x60188c7e91a5dbd9:0x45b56203f69193db!4m6!3m5!1s0x60188be9b6536139:0x4323c0f172539c54!8m2!3d35.6661104!4d139.7596!16s%2Fg%2F1tdbkzzq?entry=ttu&g_ep=EgoyMDI1MDcyMC4wIKXMDSoASAFQAw%3D%3D"
  },
  {
    "name": "Nikujiruya - Shimbashi branch",
    "lat": 35.6640592,
    "lng": 139.7571809,
    "cuisine": "yakiniku",
    "rating": 4,
    "price_level": 2,
    "area": "Shinbashi",
    "google_map_url": "https://www.google.com/maps/place/Nikujiruya+-+Shimbashi+branch/@35.6640592,139.7571809,17.85z/data=!3m1!5s0x60188bea1aedc84d:0x7d094422166acc24!4m6!3m5!1s0x60188bea1af602f7:0x6d3f136a9d501ebf!8m2!3d35.664644!4d139.7570321!16s%2Fg%2F11cmn94f0n?entry=ttu&g_ep=EgoyMDI1MDcyMC4wIKXMDSoASAFQAw%3D%3D"
  },
  {
    "name": "Menya Sugo",
    "lat": 35.6641446,
    "lng": 139.7570836,
    "cuisine": "ramen",
    "rating": 3.9,
    "price_level": 1,
    "area": "Shinbashi",
    "google_map_url": "https://www.google.com/maps/place/Menya+Sugo/@35.6641446,139.7570836,17.29z/data=!4m6!3m5!1s0x60188b3b80da9fad:0xab15954eb218de7a!8m2!3d35.664574!4d139.7576239!16s%2Fg%2F11pxw7bxjc?entry=ttu&g_ep=EgoyMDI1MDcyMC4wIKXMDSoASAFQAw%3D%3D"
  },
  {
    "name": "Kitakata Shokudo",
    "lat": 35.6628704,
    "lng": 139.7544416,
    "cuisine": "ramen",
    "rating": 3.9,
    "price_level": 1,
    "area": "Shinbashi",
    "google_map_url": "https://www.google.com/maps/place/Kitakata+Shokudo/@35.6628704,139.7544416,15.68z/data=!4m6!3m5!1s0x60188bea79f4ec9b:0x8dca4e2d33252e0d!8m2!3d35.6636139!4d139.7554932!16s%2Fg%2F11cn315klf?entry=ttu&g_ep=EgoyMDI1MDcyMC4wIKXMDSoASAFQAw%3D%3D"
  },
  {
    "name": "The Kari",
    "lat": 35.6604055,
    "lng": 139.7529083,
    "cuisine": "curry",
    "rating": 3.9,
    "price_level": 1,
    "area": "Shinbashi",
    "google_map_url": "https://www.google.com/maps/place/The+Kari/@35.6623824,139.7546301,19.02z/data=!3m1!5s0x60188bc03367fda5:0x53010dd9e0fe40af!4m6!3m5!1s0x60188bc03335984d:0x441d8e94065a281a!8m2!3d35.6623206!4d139.7549107!16s%2Fg%2F1v5k2_ns?entry=ttu&g_ep=EgoyMDI1MDcyMi4wIKXMDSoASAFQAw%3D%3D"
  },
  {
    "name": "Tempura Kakiage Yukimura",
    "lat": 35.6632295,
    "lng": 139.7550031,
    "cuisine": "Tempura",
    "rating": 4.3,
    "price_level": 1,
    "area": "Shinbashi",
    "google_map_url": "https://www.google.com/maps/place/Tempura+Kakiage+Yukimura/@35.6632295,139.7550031,16.14z/data=!4m6!3m5!1s0x60188ba3e29b12b7:0x991b751318175a8d!8m2!3d35.6620038!4d139.7535989!16s%2Fg%2F11fk8lng5h?entry=ttu&g_ep=EgoyMDI1MDcyMC4wIKXMDSoASAFQAw%3D%3D"
  },
  {
    "name": "Tomidokoro",
    "lat": 35.6627557,
    "lng": 139.7546314,
    "cuisine": "sushi",
    "rating": 4.3,
    "price_level": 3,
    "area": "Shinbashi",
    "google_map_url": "https://www.google.com/maps/place/Tomidokoro/@35.6627557,139.7546314,16.71z/data=!3m1!5s0x60188bc0395a83b3:0x285ecc8332ee8bb3!4m6!3m5!1s0x60188b02e8f057bb:0xf8972f2f892deace!8m2!3d35.6619041!4d139.7540636!16s%2Fg%2F11h3bt4vdn?entry=ttu&g_ep=EgoyMDI1MDcyMC4wIKXMDSoASAFQAw%3D%3D"
  },
  {
    "name": "Syoutaien Shibadaimon",
    "lat": 35.6557206,
    "lng": 139.7509014,
    "cuisine": "yakiniku",
    "rating": 4.2,
    "price_level": 2,
    "area": "Shinbashi",
    "google_map_url": "https://www.google.com/maps/place/Syoutaien+Shibadaimon/@35.6557206,139.7509014,15.56z/data=!4m6!3m5!1s0x601d86f1a0765775:0x2f255a74cac1fc15!8m2!3d35.6580244!4d139.7537434!16s%2Fg%2F1td2gxb7?entry=ttu&g_ep=EgoyMDI1MDcyMC4wIKXMDSoASAFQAw%3D%3D"
  },
  {
    "name": "Zurriola",
    "lat": 35.6701309,
    "lng": 139.7602843,
    "cuisine": "Basque Restaurant",
    "rating": 4.5,
    "price_level": 3,
    "area": "Ginza",
    "google_map_url": "https://www.google.com/maps/place/Zurriola/@35.6701309,139.7602843,17z/data=!3m2!4b1!5s0x60188be61c350abb:0x1fa7ec239da6c73!4m6!3m5!1s0x60188be61c479097:0x787fb2d183033ddf!8m2!3d35.6701309!4d139.7628592!16s%2Fg%2F11bxjw3lp4?entry=ttu&g_ep=EgoyMDI1MDcyMC4wIKXMDSoASAFQAw%3D%3D"
  },
  {
    "name": "Tempura Kondo",
    "lat": 35.6711696,
    "lng": 139.7606037,
    "cuisine": "tempura",
    "rating": 4.4,
    "price_level": 3,
    "area": "Ginza",
    "google_map_url": "https://www.google.com/maps/place/Tempura+Kondo/@35.6711696,139.7606037,17z/data=!3m2!4b1!5s0x60188be5fd186411:0xb568045b724eaf5e!4m6!3m5!1s0x60188be5fd1b635f:0x50dc6b88177b1cbe!8m2!3d35.6711696!4d139.7631786!16s%2Fg%2F1tj57s43?entry=ttu&g_ep=EgoyMDI1MDcyMC4wIKXMDSoASAFQAw%3D%3D"
  }
]