[
  {
      "name": "Imperial Palace",
      "lat": 35.685175,
      "lng": 139.7527995,
      "google_map_url":"https://maps.google.com/?cid=15067460005103824311"
    },
    {
      "name": "teamLab Planets TOKYO DMM",
      "lat": 35.6491207,
      "lng": 139.7897739,
      "google_map_url":"https://maps.google.com/?cid=7918542870314997282"
    },
    {
      "name": "teamLab Borderless: MORI Building DIGITAL ART MUSEUM",
      "lat": 35.6620689,
      "lng": 139.7432671,
      "google_map_url":"https://maps.google.com/?cid=6355049266444838481"
    },
    {
      "name": "Tokyo Tower",
      "lat": 35.6585805,
      "lng": 139.7454329,
      "google_map_url":"https://maps.google.com/?cid=5195627782660688349"
    },
    {
      "name": "Zōjō-ji",
      "lat": 35.657479,
      "lng": 139.7482928,
      "google_map_url":"https://maps.google.com/?cid=9846179875119807780"
    },
    {
      "name": "Sensō-ji",
      "lat": 35.7147651,
      "lng": 139.7966553,
      "google_map_url":"https://maps.google.com/?cid=7785923974874169613"
    },
    {
      "name": "Ghibli Museum",
      "lat": 35.696238,
      "lng": 139.5704317,
      "google_map_url":"https://maps.google.com/?cid=5611860688709652997"
    },
    {
      "name": "Museum of Contemporary Art Tokyo (MOT)",
      "lat": 35.6797467,
      "lng": 139.8081921,
      "google_map_url":"https://maps.google.com/?cid=12392172805758671495"
    },
    {
      "name": "Tokyo Metropolitan Teien Art Museum",
      "lat": 35.6369465,
      "lng": 139.7190408,
      "google_map_url":"https://maps.google.com/?cid=15887147537231276792"
    },
    {
      "name": "Shibuya Sky",
      "lat": 35.6586719,
      "lng": 139.7019848,
      "google_map_url":"https://maps.google.com/?cid=8067212359343678579"
    },
    {
      "name": "Meiji Jingu",
      "lat": 35.6763976,
      "lng": 139.6993259,
      "google_map_url":"https://maps.google.com/?cid=10361244767556222835"
    },
    {
      "name": "Shinjuku Gyoen National Garden",
      "lat": 35.6851763,
      "lng": 139.7100517,
      "google_map_url":"https://maps.google.com/?cid=7646744610971579015"
    },
    {
      "name": "The National Museum of Emerging Science and Innovation Japan (Miraikan)",
      "lat": 35.6193359,
      "lng": 139.7763995,
      "google_map_url":"https://maps.google.com/?cid=17776100751480490400"
    },
    {
      "name": "Tokyo Disneyland",
      "lat": 35.6328964,
      "lng": 139.8803943,
      "google_map_url":"https://maps.google.com/?cid=16490271119724106699"
    },
    {
      "name": "Ueno Zoo",
      "lat": 35.7160153,
      "lng": 139.772882,
      "google_map_url":"https://maps.google.com/?cid=8554787533003198196"
    },
    {
      "name": "The National Museum of Western Art",
      "lat": 35.7153869,
      "lng": 139.7758138,
      "google_map_url":"https://maps.google.com/?cid=13484864514866363531"
    },
    {
      "name": "Tokyo Metropolitan Art Museum",
      "lat": 35.7172113,
      "lng": 139.7729387,
      "google_map_url":"https://maps.google.com/?cid=9518604028842126160"
    },
    {
      "name": "Tokyo National Museum",
      "lat": 35.7188351,
      "lng": 139.7765215,
      "google_map_url":"https://maps.google.com/?cid=2535480516976146397"
    },
    {
      "name": "Mori Art Museum",
      "lat": 35.6604621,
      "lng": 139.7292785,
      "google_map_url":"https://maps.google.com/?cid=1149329482222982889"
    },
    {
      "name": "Tokyo City View",
      "lat": 35.6600712,
      "lng": 139.7292907,
      "google_map_url":"https://maps.google.com/?cid=7384412932969796183"
    },
    {
      "name": "Fujiko · F · Fujio Museum",
      "lat": 35.6099229,
      "lng": 139.5735723,
      "google_map_url":"https://maps.google.com/?cid=17800468312589483909"
    },
    {
      "name": "Tokyo Sky Tree / 東京スカイツリー",
      "lat": 35.7100876,
      "lng": 139.8106698,
      "google_map_url":"https://maps.google.com/?cid=9015449659807889194"
    },
    {
      "name": "Nihon Minka-en (Japan Open-Air Folk Museum)",
      "lat": 35.609861,
      "lng": 139.5618588,
      "google_map_url":"https://maps.google.com/?cid=2155369180254653743"
    },
    {
      "name": "Inokashira Park",
      "lat": 35.6997476,
      "lng": 139.5737018,
      "google_map_url":"https://maps.google.com/?cid=9252577392854102863"
    },
    {
      "name": "Sarue Park",
      "lat": 35.6900903,
      "lng": 139.818511,
      "google_map_url":"https://maps.google.com/?cid=10074496320802894751"
    },
    {
      "name": "Kiyosumi Gardens",
      "lat": 35.6809021,
      "lng": 139.7972649,
      "google_map_url":"https://maps.google.com/?cid=9741550465813907025"
    },
    {
      "name": "Tokyo DisneySea",
      "lat": 35.6267108,
      "lng": 139.8850779,
      "google_map_url":"https://maps.google.com/?cid=4703760703938833701"
    },
    {
      "name": "Gōtokuji Temple",
      "lat": 35.6488124,
      "lng": 139.647481,
      "google_map_url":"https://maps.google.com/?cid=482142090738683052"
    },
    {
      "name": "Nezu Museum",
      "lat": 35.6622568,
      "lng": 139.7170937,
      "google_map_url":"https://maps.google.com/?cid=15044873861634050844"
    },
    {
      "name": "21_21 Design Sight",
      "lat": 35.667526,
      "lng": 139.7303912,
      "google_map_url":"https://maps.google.com/?cid=18351375368394313434"
    },
    {
      "name": "The National Art Center, Tokyo",
      "lat": 35.665289,
      "lng": 139.726374,
      "google_map_url":"https://maps.google.com/?cid=4622367683473218840"
    },
    {
      "name": "Hie Shrine",
      "lat": 35.6746656,
      "lng": 139.7399379,
      "google_map_url":"https://maps.google.com/?cid=17240653475158981775"
    },
    {
      "name": "Yasukuni-jinja Shrine",
      "lat": 35.694136,
      "lng": 139.743849,
      "google_map_url":"https://maps.google.com/?cid=13107538590517743248"
    },
    {
      "name": "Koishikawa Korakuen Garden",
      "lat": 35.7056913,
      "lng": 139.7492718,
      "google_map_url":"https://maps.google.com/?cid=1955127484666331742"
    },
    {
      "name": "Kanda Myoujin Shrine",
      "lat": 35.7020186,
      "lng": 139.7678943,
      "google_map_url":"https://maps.google.com/?cid=17552749546243718283"
    },
    {
      "name": "Nezu Shrine",
      "lat": 35.7201366,
      "lng": 139.7607695,
      "google_map_url":"https://maps.google.com/?cid=867647111645506317"
    },
    {
      "name": "Gokokuji Temple",
      "lat": 35.7217445,
      "lng": 139.7256795,
      "google_map_url":"https://maps.google.com/?cid=16399959650099398109"
    },
    {
      "name": "Rikugien Gardens",
      "lat": 35.7331005,
      "lng": 139.7457335,
      "google_map_url":"https://maps.google.com/?cid=8523193424780095461"
    },
    {
      "name": "Mejiro Garden",
      "lat": 35.7244731,
      "lng": 139.7055329,
      "google_map_url":"https://maps.google.com/?cid=1045081913314059582"
    },
    {
      "name": "Tokyo Metropolitan Government Building North Observation Deck",
      "lat": 35.6896807,
      "lng": 139.692031,
      "google_map_url":"https://maps.google.com/?cid=16551227205725519406"
    },
    {
      "name": "Kanda Myoujin Shrine",
      "lat": 35.7014599,
      "lng": 139.7674506,
      "google_map_url":"https://maps.google.com/?cid=17552749546243718283"
    },
    {
      "name": "Shibuya Scramble Crossing",
      "lat": 35.659482,
      "lng": 139.7005596,
      "google_map_url":"https://maps.google.com/?cid=2370410330085837161"
    },
    {
      "name": "Unicorn Gundam",
      "lat": 35.624451,
      "lng": 139.7754917,
      "google_map_url":"https://maps.google.com/?cid=16300115339830217555"
    },
    {
      "name": "Statue of Liberty - Odaiba",
      "lat": 35.6278727,
      "lng": 139.7718346,
      "google_map_url":"https://maps.google.com/?cid=13582406982295785891"
    },
    {
      "name": "The Making of Harry Potter - Warner Bros. Studio Tour Tokyo",
      "lat": 35.745183,
      "lng": 139.6460909,
      "google_map_url":"https://maps.google.com/?cid=9641848556797388443"
    },
    {
      "name": "Tokiwaso Manga Museum",
      "lat": 35.7242899,
      "lng": 139.6859984,
      "google_map_url":"https://maps.google.com/?cid=10602125184424326452"
    },
    {
      "name": "Akihabara Electric Town",
      "lat": 35.6999418,
      "lng": 139.7723058,
      "google_map_url":"https://maps.google.com/?cid=8588181514563389831"
    },
    {
      "name": "Ueno Ameyoko Shopping Street",
      "lat": 35.7100581,
      "lng": 139.7745474,
      "google_map_url":"https://maps.google.com/?cid=7298938795051699978"
    },
    {
      "name": "Tsukiji Outer Market",
      "lat": 35.6647703,
      "lng": 139.7702515,
      "google_map_url":"https://maps.google.com/?cid=11704332758705177180"
    }
]